$GPTXT,01,01,02,u-blox ag - www.u-blox.com*50
$GPTXT,01,01,02,HW  UBX-G60xx  00040007 FF7FFFFFp*53
$GPTXT,01,01,02,ROM CORE 7.03 (45969) Mar 17 2011 16:18:34*59
$GPTXT,01,01,02,ANTSUPERV=AC SD PDoS SR*20
$GPTXT,01,01,02,ANTSTATUS=OK*3B
$GPRMC,094953.00,A,2458.07427,N,12111.47554,E,0.907,,121119,,,A*7F
$GPVTG,,T,,M,0.907,N,1.680,K,A*22
$GPGGA,094953.00,2458.07427,N,12111.47554,E,1,09,0.93,155.6,M,16.4,M,,*51
$GPGSA,A,3,25,14,10,26,29,20,22,31,32,,,,1.74,0.93,1.47*05
$GPGSV,3,1,11,10,41,187,38,12,04,036,,14,51,339,39,16,10,211,*7E
$GPGSV,3,2,11,20,15,170,22,22,10,316,24,25,46,041,39,26,37,215,33*77
$GPGSV,3,3,11,29,23,110,27,31,48,310,37,32,68,034,40*42
$GPGLL,2458.07427,N,12111.47554,E,094953.00,A,A*63
$GPRMC,094954.00,A,2458.07370,N,12111.47504,E,0.958,,121119,,,A*72
$GPVTG,,T,,M,0.958,N,1.775,K,A*23
$GPGGA,094954.00,2458.07370,N,12111.47504,E,1,09,0.93,155.5,M,16.4,M,,*55
$GPGSA,A,3,25,14,10,26,29,20,22,31,32,,,,1.74,0.93,1.47*05
$GPGSV,3,1,12,10,41,187,41,12,04,036,,14,51,339,32,16,10,211,*78
$GPGSV,3,2,12,20,15,170,23,22,10,316,25,23,,,24,25,46,041,40*4B
$GPGSV,3,3,12,26,37,215,33,29,23,110,32,31,48,310,37,32,68,034,44*77
$GPGLL,2458.07370,N,12111.47504,E,094954.00,A,A*64
$GPRMC,094955.00,A,2458.07356,N,12111.47466,E,0.497,,121119,,,A*7C
$GPVTG,,T,,M,0.497,N,0.920,K,A*22
$GPGGA,094955.00,2458.07356,N,12111.47466,E,1,09,0.93,153.1,M,16.4,M,,*57
$GPGSA,A,3,25,14,10,26,29,20,22,31,32,,,,1.74,0.93,1.47*05
$GPGSV,3,1,11,10,41,187,43,12,04,036,,14,51,339,27,16,10,211,*7D
$GPGSV,3,2,11,20,15,170,30,22,10,316,25,25,46,041,36,26,37,215,31*78
$GPGSV,3,3,11,29,23,110,26,31,48,310,34,32,68,034,43*43
$GPGLL,2458.07356,N,12111.47466,E,094955.00,A,A*64
$GPRMC,094956.00,A,2458.07357,N,12111.47449,E,0.268,,121119,,,A*75
$GPVTG,,T,,M,0.268,N,0.497,K,A*25
$GPGGA,094956.00,2458.07357,N,12111.47449,E,1,09,0.93,153.5,M,16.4,M,,*5C
$GPGSA,A,3,25,14,10,26,29,20,22,31,32,,,,1.74,0.93,1.47*05
$GPGSV,3,1,11,10,41,187,41,12,04,036,,14,51,339,27,16,10,211,*7F
$GPGSV,3,2,11,20,15,170,22,22,10,316,27,25,46,041,37,26,37,215,35*7C
$GPGSV,3,3,11,29,23,110,32,31,48,310,35,32,68,034,41*45
$GPGLL,2458.07357,N,12111.47449,E,094956.00,A,A*6B
$GPRMC,094957.00,A,2458.07332,N,12111.47435,E,0.468,,121119,,,A*7A
$GPVTG,,T,,M,0.468,N,0.866,K,A*21
$GPGGA,094957.00,2458.07332,N,12111.47435,E,1,09,0.93,153.2,M,16.4,M,,*52
$GPGSA,A,3,25,14,10,26,29,20,22,31,32,,,,1.74,0.93,1.47*05
$GPGSV,3,1,11,10,41,187,41,12,04,036,,14,51,339,27,16,10,211,*7F
$GPGSV,3,2,11,20,15,170,31,22,10,316,26,25,46,041,32,26,37,215,37*78
$GPGSV,3,3,11,29,23,110,27,31,48,310,28,32,68,034,42*4E
$GPGLL,2458.07332,N,12111.47435,E,094957.00,A,A*62
$GPRMC,094958.00,A,2458.07276,N,12111.47393,E,1.760,233.51,121119,,,A*6D
$GPVTG,233.51,T,,M,1.760,N,3.259,K,A*36
$GPGGA,094958.00,2458.07276,N,12111.47393,E,1,09,0.93,154.4,M,16.4,M,,*56
$GPGSA,A,3,25,14,10,26,29,20,22,31,32,,,,1.74,0.93,1.47*05
$GPGSV,3,1,12,10,41,187,41,12,04,036,,14,51,339,38,16,10,211,32*73
$GPGSV,3,2,12,20,15,170,25,22,10,316,27,25,46,041,27,26,37,215,38*74
$GPGSV,3,3,12,27,,,24,29,23,110,31,31,48,310,38,32,68,034,45*4F
$GPGLL,2458.07276,N,12111.47393,E,094958.00,A,A*67
$GPRMC,094959.00,A,2458.07225,N,12111.47294,E,2.989,229.73,121119,,,A*6D
$GPVTG,229.73,T,,M,2.989,N,5.536,K,A*3F
$GPGGA,094959.00,2458.07225,N,12111.47294,E,1,09,0.93,155.3,M,16.4,M,,*51
$GPGSA,A,3,25,14,10,26,29,20,22,31,32,,,,1.74,0.93,1.47*05
$GPGSV,3,1,12,10,41,187,45,12,04,036,,14,51,339,39,16,10,211,27*72
$GPGSV,3,2,12,20,15,170,30,22,10,316,27,25,46,041,31,26,37,215,32*7D
$GPGSV,3,3,12,28,,,24,29,23,110,32,31,48,310,40,32,68,034,43*4A
$GPGLL,2458.07225,N,12111.47294,E,094959.00,A,A*66
$GPRMC,095000.00,A,2458.07190,N,12111.47274,E,1.125,,121119,,,A*74
$GPVTG,,T,,M,1.125,N,2.084,K,A*2A
$GPGGA,095000.00,2458.07190,N,12111.47274,E,1,09,0.93,156.2,M,16.4,M,,*54
$GPGSA,A,3,25,14,10,26,29,20,22,31,32,,,,1.74,0.93,1.47*05
$GPGSV,3,1,11,10,41,187,32,12,04,036,,14,51,339,45,16,10,211,26*7B
$GPGSV,3,2,11,20,15,170,30,22,10,316,29,25,46,041,34,26,37,215,31*76
$GPGSV,3,3,11,29,23,110,28,31,48,310,40,32,68,034,40*4D
$GPGLL,2458.07190,N,12111.47274,E,095000.00,A,A*61
$GPRMC,095001.00,A,2458.07130,N,12111.47241,E,2.553,221.91,121119,,,A*68
$GPVTG,221.91,T,,M,2.553,N,4.727,K,A*33
$GPGGA,095001.00,2458.07130,N,12111.47241,E,1,09,0.93,157.6,M,16.4,M,,*5C
$GPGSA,A,3,25,14,10,26,29,20,22,31,32,,,,1.74,0.93,1.47*05
$GPGSV,3,1,11,10,41,187,34,12,04,036,,14,51,339,37,16,10,211,25*7B
$GPGSV,3,2,11,20,15,170,24,22,10,316,34,25,46,041,31,26,37,215,40*7C
$GPGSV,3,3,11,29,23,110,29,31,48,310,38,32,68,034,41*42
$GPGLL,2458.07130,N,12111.47241,E,095001.00,A,A*6C
$GPRMC,095002.00,A,2458.07050,N,12111.47245,E,2.699,199.05,121119,,,A*60
$GPVTG,199.05,T,,M,2.699,N,4.999,K,A*30
$GPGGA,095002.00,2458.07050,N,12111.47245,E,1,09,0.93,158.4,M,16.4,M,,*51
$GPGSA,A,3,25,14,10,26,29,20,22,31,32,,,,1.74,0.93,1.47*05
$GPGSV,3,1,11,10,41,187,36,12,04,036,,14,51,339,40,16,10,211,26*7A
$GPGSV,3,2,11,20,15,170,31,22,10,316,34,25,46,041,31,26,37,215,43*7B
$GPGSV,3,3,11,29,23,110,29,31,48,310,36,32,68,034,46*4B
$GPGLL,2458.07050,N,12111.47245,E,095002.00,A,A*6C
$GPRMC,095003.00,A,2458.06971,N,12111.47246,E,2.839,193.20,121119,,,A*60
$GPVTG,193.20,T,,M,2.839,N,5.259,K,A*3F
$GPGGA,095003.00,2458.06971,N,12111.47246,E,1,09,0.93,158.8,M,16.4,M,,*54
$GPGSA,A,3,25,14,10,26,29,20,22,31,32,,,,1.74,0.93,1.47*05
$GPGSV,3,1,11,10,41,187,33,12,04,036,,14,51,339,32,16,10,211,25*79
$GPGSV,3,2,11,20,15,170,31,22,10,316,30,25,46,041,38,26,37,215,39*7B
$GPGSV,3,3,11,29,23,110,27,31,48,310,41,32,68,034,41*42
$GPGLL,2458.06971,N,12111.47246,E,095003.00,A,A*65
$GPRMC,095004.00,A,2458.06930,N,12111.47222,E,1.639,197.35,121119,,,A*6D
$GPVTG,197.35,T,,M,1.639,N,3.036,K,A*3F
$GPGGA,095004.00,2458.06930,N,12111.47222,E,1,09,0.93,158.5,M,16.4,M,,*59
$GPGSA,A,3,25,14,10,26,29,20,22,31,32,,,,1.74,0.93,1.47*05
$GPGSV,3,1,12,10,41,187,34,12,04,036,,14,51,339,43,16,10,211,*7C
$GPGSV,3,2,12,20,15,170,32,22,10,316,29,25,46,041,43,26,37,215,31*77
$GPGSV,3,3,12,29,23,110,28,31,48,310,39,32,68,034,47,50,51,133,38*7C
$GPGLL,2458.06930,N,12111.47222,E,095004.00,A,A*65
$GPRMC,095005.00,A,2458.06857,N,12111.47206,E,3.027,191.38,121119,,,A*6A
$GPVTG,191.38,T,,M,3.027,N,5.605,K,A*3F
$GPGGA,095005.00,2458.06857,N,12111.47206,E,1,09,0.93,158.2,M,16.4,M,,*59
$GPGSA,A,3,25,14,10,26,29,20,22,31,32,,,,1.74,0.93,1.47*05
$GPGSV,3,1,12,10,41,187,34,12,04,036,,14,51,339,38,16,10,211,*70
$GPGSV,3,2,12,20,15,170,34,22,10,316,29,25,46,041,38,26,37,215,37*7B
$GPGSV,3,3,12,29,23,110,27,31,48,310,42,32,68,034,48,50,51,133,40*7F
$GPGLL,2458.06857,N,12111.47206,E,095005.00,A,A*62
$GPRMC,095006.00,A,2458.06775,N,12111.47202,E,2.444,183.56,121119,,,A*69
$GPVTG,183.56,T,,M,2.444,N,4.526,K,A*37
$GPGGA,095006.00,2458.06775,N,12111.47202,E,1,09,0.93,158.5,M,16.4,M,,*56
$GPGSA,A,3,25,14,10,26,29,20,22,31,32,,,,1.74,0.93,1.47*05
$GPGSV,3,1,12,10,41,187,38,12,04,036,,14,51,339,40,16,10,211,*73
$GPGSV,3,2,12,20,15,170,30,22,10,316,33,25,46,041,36,26,37,215,36*7B
$GPGSV,3,3,12,29,23,110,27,31,48,310,40,32,68,034,43,50,51,133,40*76
$GPGLL,2458.06775,N,12111.47202,E,095006.00,A,A*6A
$GPRMC,095007.00,A,2458.06716,N,12111.47184,E,1.965,185.56,121119,,,A*6B
$GPVTG,185.56,T,,M,1.965,N,3.638,K,A*37
$GPGGA,095007.00,2458.06716,N,12111.47184,E,1,09,0.93,158.4,M,16.4,M,,*5E
$GPGSA,A,3,25,14,10,26,29,20,22,31,32,,,,1.74,0.93,1.47*05
$GPGSV,3,1,12,10,41,187,35,12,04,036,,14,51,339,41,16,10,211,24*79
$GPGSV,3,2,12,20,15,170,31,22,10,316,29,25,46,041,41,26,37,215,31*76
$GPGSV,3,3,12,29,23,110,26,31,48,310,45,32,68,034,43,50,51,133,40*72
$GPGLL,2458.06716,N,12111.47184,E,095007.00,A,A*63
$GPRMC,095008.00,A,2458.06644,N,12111.47182,E,2.833,187.57,121119,,,A*66
$GPVTG,187.57,T,,M,2.833,N,5.247,K,A*3F
$GPGGA,095008.00,2458.06644,N,12111.47182,E,1,09,0.93,158.2,M,16.4,M,,*57
$GPGSA,A,3,25,14,10,26,29,20,22,31,32,,,,1.74,0.93,1.47*05
$GPGSV,3,1,12,10,41,187,37,12,04,036,,14,51,339,41,16,10,211,23*7C
$GPGSV,3,2,12,20,15,170,26,22,10,316,28,25,46,041,43,26,37,215,38*7A
$GPGSV,3,3,12,29,23,110,26,31,48,310,38,32,68,034,36,50,51,133,39*74
$GPGLL,2458.06644,N,12111.47182,E,095008.00,A,A*6C
$GPRMC,095009.00,A,2458.06575,N,12111.47167,E,2.556,187.99,121119,,,A*61
$GPVTG,187.99,T,,M,2.556,N,4.733,K,A*34
$GPGGA,095009.00,2458.06575,N,12111.47167,E,1,09,0.93,156.9,M,16.4,M,,*59
$GPGSA,A,3,25,14,10,26,29,20,22,31,32,,,,1.74,0.93,1.47*05
$GPGSV,4,1,13,10,41,187,38,12,04,036,19,14,51,339,35,16,10,211,23*7E
$GPGSV,4,2,13,20,15,170,27,22,10,316,27,25,46,041,44,26,37,215,35*78
$GPGSV,4,3,13,29,23,110,26,31,48,310,41,32,68,034,41,42,54,141,37*71
$GPGSV,4,4,13,50,51,133,39*41
$GPGLL,2458.06575,N,12111.47167,E,095009.00,A,A*67
$GPRMC,095010.00,A,2458.06526,N,12111.47130,E,1.760,192.99,121119,,,A*6D
$GPVTG,192.99,T,,M,1.760,N,3.259,K,A*3A
$GPGGA,095010.00,2458.06526,N,12111.47130,E,1,09,0.93,156.3,M,16.4,M,,*5F
$GPGSA,A,3,25,14,10,26,29,20,22,31,32,,,,1.75,0.93,1.47*04
$GPGSV,4,1,13,10,41,187,34,12,04,036,,14,51,339,27,16,10,211,24*7E
$GPGSV,4,2,13,20,15,170,27,22,10,316,26,25,46,041,34,26,37,215,32*79
$GPGSV,4,3,13,29,23,110,25,31,48,310,44,32,68,034,40,42,54,141,38*79
$GPGSV,4,4,13,50,51,133,39*41
$GPGLL,2458.06526,N,12111.47130,E,095010.00,A,A*6B
$GPRMC,095011.00,A,2458.06438,N,12111.47084,E,2.729,195.89,121119,,,A*64
$GPVTG,195.89,T,,M,2.729,N,5.053,K,A*3C
$GPGGA,095011.00,2458.06438,N,12111.47084,E,1,09,0.93,156.3,M,16.4,M,,*5E
$GPGSA,A,3,25,14,10,26,29,20,22,31,32,,,,1.75,0.93,1.47*04
$GPGSV,4,1,13,10,41,187,42,12,04,036,,14,51,339,34,16,10,211,23*7A
$GPGSV,4,2,13,20,15,170,27,22,10,316,25,25,46,041,30,26,37,215,37*7B
$GPGSV,4,3,13,29,23,110,26,31,48,310,41,32,68,034,41,42,54,141,36*70
$GPGSV,4,4,13,50,51,133,36*4E
$GPGLL,2458.06438,N,12111.47084,E,095011.00,A,A*6A
$GPRMC,095012.00,A,2458.06356,N,12111.47041,E,2.504,198.10,121119,,,A*61
$GPVTG,198.10,T,,M,2.504,N,4.637,K,A*39
$GPGGA,095012.00,2458.06356,N,12111.47041,E,1,09,0.93,156.0,M,16.4,M,,*58
$GPGSA,A,3,25,14,10,26,29,20,22,31,32,,,,1.75,0.93,1.47*04
$GPGSV,4,1,13,10,41,187,38,12,04,036,,14,51,339,32,16,10,211,23*71
$GPGSV,4,2,13,20,15,170,18,22,10,316,25,25,46,041,33,26,37,215,40*74
$GPGSV,4,3,13,29,23,110,25,31,48,310,38,32,68,034,46,42,54,141,36*7A
$GPGSV,4,4,13,50,51,133,38*40
$GPGLL,2458.06356,N,12111.47041,E,095012.00,A,A*6F
$GPRMC,095013.00,A,2458.06275,N,12111.47005,E,2.494,196.81,121119,,,A*6E
$GPVTG,196.81,T,,M,2.494,N,4.619,K,A*3B
$GPGGA,095013.00,2458.06275,N,12111.47005,E,1,09,0.93,155.7,M,16.4,M,,*5D
$GPTXT,01,01,02,u-blox ag - www.u-blox.com*50
$GPTXT,01,01,02,HW  UBX-G60xx  00040007 FF7FFFFFp*53
$GPTXT,01,01,02,ROM CORE 7.03 (45969) Mar 17 2011 16:18:34*59
$GPTXT,01,01,02,ANTSUPERV=AC SD PDoS SR*20
$GPTXT,01,01,02,ANTSTATUS=OK*3B
$GPRMC,095023.00,A,2458.05512,N,12111.46931,E,2.132,181.92,121119,,,A*6A
$GPVTG,181.92,T,,M,2.132,N,3.949,K,A*3B
$GPGGA,095023.00,2458.05512,N,12111.46931,E,1,09,0.93,147.4,M,16.4,M,,*54
$GPGSA,A,3,25,14,10,26,29,20,22,31,32,,,,1.75,0.93,1.47*04
$GPGSV,4,1,13,10,40,187,29,12,04,036,,14,51,339,38,16,10,211,24*7D
$GPGSV,4,2,13,20,15,170,30,22,10,316,28,25,46,041,47,26,37,215,32*75
$GPGSV,4,3,13,29,23,110,24,31,48,310,42,32,68,034,45,42,54,141,35*76
$GPGSV,4,4,13,50,51,133,36*4E
$GPGLL,2458.05512,N,12111.46931,E,095023.00,A,A*67
$GPRMC,095024.00,A,2458.05444,N,12111.46923,E,2.443,186.86,121119,,,A*6D
$GPVTG,186.86,T,,M,2.443,N,4.525,K,A*3B
$GPGGA,095024.00,2458.05444,N,12111.46923,E,1,09,0.93,147.3,M,16.4,M,,*55
$GPGSA,A,3,25,14,10,26,29,20,22,31,32,,,,1.75,0.93,1.47*04
$GPGSV,4,1,13,10,40,187,33,12,04,036,,14,51,339,38,16,10,211,24*76
$GPGSV,4,2,13,20,15,170,29,22,10,316,28,25,46,041,40,26,37,215,33*7B
$GPGSV,4,3,13,29,23,110,25,31,48,310,32,32,68,034,47,42,54,141,38*7F
$GPGSV,4,4,13,50,51,133,39*41
$GPGLL,2458.05444,N,12111.46923,E,095024.00,A,A*61
$GPRMC,095025.00,A,2458.05364,N,12111.46928,E,2.348,189.22,121119,,,A*6F
$GPVTG,189.22,T,,M,2.348,N,4.349,K,A*3A
$GPGGA,095025.00,2458.05364,N,12111.46928,E,1,09,0.93,146.4,M,16.4,M,,*5C
$GPGSA,A,3,25,14,10,26,29,20,22,31,32,,,,1.75,0.93,1.47*04
$GPGSV,4,1,13,10,40,187,39,12,04,036,,14,51,340,34,16,10,211,23*79
$GPGSV,4,2,13,20,15,170,30,22,10,316,26,25,46,041,43,26,37,215,32*7F
$GPGSV,4,3,13,29,23,110,26,31,48,310,40,32,68,034,43,42,54,141,33*76
$GPGSV,4,4,13,50,51,133,32*4A
$GPGLL,2458.05364,N,12111.46928,E,095025.00,A,A*6E
$GPRMC,095026.00,A,2458.05309,N,12111.46921,E,1.625,192.39,121119,,,A*63
$GPVTG,192.39,T,,M,1.625,N,3.010,K,A*3F
$GPGGA,095026.00,2458.05309,N,12111.46921,E,1,09,0.93,146.2,M,16.4,M,,*5B
$GPGSA,A,3,25,14,10,26,29,20,22,31,32,,,,1.75,0.93,1.47*04
$GPGSV,4,1,13,10,40,187,34,12,04,036,,14,51,340,37,16,10,211,24*70
$GPGSV,4,2,13,20,15,170,23,22,10,316,27,25,46,041,45,26,37,215,34*7C
$GPGSV,4,3,13,29,23,110,27,31,48,310,42,32,68,034,34,42,54,141,33*75
$GPGSV,4,4,13,50,51,133,31*49
$GPGLL,2458.05309,N,12111.46921,E,095026.00,A,A*6F
$GPRMC,095027.00,A,2458.05224,N,12111.46928,E,2.089,191.54,121119,,,A*6E
$GPVTG,191.54,T,,M,2.089,N,3.870,K,A*3A
$GPGGA,095027.00,2458.05224,N,12111.46928,E,1,09,0.93,145.4,M,16.4,M,,*58
$GPGSA,A,3,25,14,10,26,29,20,22,31,32,,,,1.75,0.93,1.47*04
$GPGSV,4,1,13,10,40,187,42,12,04,036,,14,51,340,41,16,10,211,24*70
$GPGSV,4,2,13,20,15,170,29,22,10,316,26,25,46,041,44,26,37,215,30*72
$GPGSV,4,3,13,29,23,110,26,31,48,310,38,32,68,034,42,42,54,141,30*7B
$GPGSV,4,4,13,50,51,133,30*48
$GPGLL,2458.05224,N,12111.46928,E,095027.00,A,A*69
$GPRMC,095028.00,A,2458.05135,N,12111.46906,E,2.692,201.98,121119,,,A*68
$GPVTG,201.98,T,,M,2.692,N,4.985,K,A*30
$GPGGA,095028.00,2458.05135,N,12111.46906,E,1,09,0.93,145.9,M,16.4,M,,*55
$GPGSA,A,3,25,14,10,26,29,20,22,31,32,,,,1.75,0.93,1.47*04
$GPGSV,3,1,12,10,40,187,37,12,04,036,,14,51,340,32,16,10,211,25*71
$GPGSV,3,2,12,20,15,170,31,22,10,316,27,25,46,041,39,26,37,215,33*75
$GPGSV,3,3,12,29,23,110,24,31,48,310,40,32,68,034,43,42,54,141,30*71
$GPGLL,2458.05135,N,12111.46906,E,095028.00,A,A*69
$GPRMC,095029.00,A,2458.05034,N,12111.46898,E,2.568,197.78,121119,,,A*6B
$GPVTG,197.78,T,,M,2.568,N,4.755,K,A*37
$GPGGA,095029.00,2458.05034,N,12111.46898,E,1,09,0.93,145.2,M,16.4,M,,*59
$GPGSA,A,3,25,14,10,26,29,20,22,31,32,,,,1.75,0.93,1.47*04
$GPGSV,3,1,12,10,40,187,44,12,04,036,,14,51,340,43,16,10,211,27*71
$GPGSV,3,2,12,20,15,170,35,22,10,316,27,25,46,041,42,26,37,215,40*79
$GPGSV,3,3,12,29,23,110,25,31,48,310,34,32,68,034,44,42,54,141,32*76
$GPGLL,2458.05034,N,12111.46898,E,095029.00,A,A*6E
$GPRMC,095030.00,A,2458.04927,N,12111.46896,E,2.636,196.75,121119,,,A*63
$GPVTG,196.75,T,,M,2.636,N,4.882,K,A*36
$GPGGA,095030.00,2458.04927,N,12111.46896,E,1,09,0.93,144.6,M,16.4,M,,*50
$GPGSA,A,3,25,14,10,26,29,20,22,31,32,,,,1.75,0.93,1.47*04
$GPGSV,3,1,12,10,40,187,42,12,04,036,,14,51,340,42,16,10,211,31*71
$GPGSV,3,2,12,20,15,170,35,22,10,316,27,25,46,041,38,26,37,215,29*7B
$GPGSV,3,3,12,29,23,110,25,31,48,310,42,32,68,034,38,42,54,141,35*7B
$GPGLL,2458.04927,N,12111.46896,E,095030.00,A,A*62
$GPRMC,095031.00,A,2458.04828,N,12111.46884,E,2.728,196.32,121119,,,A*62
$GPVTG,196.32,T,,M,2.728,N,5.052,K,A*3F
$GPGGA,095031.00,2458.04828,N,12111.46884,E,1,09,0.93,143.7,M,16.4,M,,*5A
$GPGSA,A,3,25,14,10,26,29,20,22,31,32,,,,1.75,0.93,1.47*04
$GPGSV,3,1,12,10,40,187,46,12,04,036,,14,51,340,38,16,10,211,28*70
$GPGSV,3,2,12,20,15,170,35,22,10,316,27,25,46,041,33,26,37,215,33*7B
$GPGSV,3,3,12,29,23,110,25,31,48,310,36,32,68,034,43,42,54,141,29*79
$GPGLL,2458.04828,N,12111.46884,E,095031.00,A,A*6E
$GPRMC,095032.00,A,2458.04742,N,12111.46867,E,2.362,195.15,121119,,,A*63
$GPVTG,195.15,T,,M,2.362,N,4.375,K,A*34
$GPGGA,095032.00,2458.04742,N,12111.46867,E,1,09,0.93,143.2,M,16.4,M,,*52
$GPGSA,A,3,25,14,10,26,29,20,22,31,32,,,,1.75,0.93,1.47*04
$GPGSV,4,1,13,10,40,187,45,12,04,036,,14,51,340,36,16,10,211,32*70
$GPGSV,4,2,13,20,15,170,31,22,10,316,27,25,46,041,38,26,37,215,32*73
$GPGSV,4,3,13,29,23,110,25,31,48,310,37,32,68,034,46,42,54,141,34*77
$GPGSV,4,4,13,50,51,133,35*4D
$GPGLL,2458.04742,N,12111.46867,E,095032.00,A,A*63
$GPRMC,095033.00,A,2458.04627,N,12111.46857,E,3.420,185.98,121119,,,A*67
$GPVTG,185.98,T,,M,3.420,N,6.333,K,A*30
$GPGGA,095033.00,2458.04627,N,12111.46857,E,1,09,0.93,144.2,M,16.4,M,,*55
$GPGSA,A,3,25,14,10,26,29,20,22,31,32,,,,1.75,0.93,1.47*04
$GPGSV,4,1,13,10,40,187,45,12,04,036,,14,51,340,34,16,10,211,27*76
$GPGSV,4,2,13,20,15,170,30,22,10,315,25,25,46,041,39,26,37,215,34*74
$GPGSV,4,3,13,29,23,110,24,31,48,310,35,32,68,034,47,42,54,141,29*79
$GPGSV,4,4,13,50,51,133,31*49
$GPGLL,2458.04627,N,12111.46857,E,095033.00,A,A*63
$GPRMC,095034.00,A,2458.04535,N,12111.46845,E,2.676,189.36,121119,,,A*6B
$GPVTG,189.36,T,,M,2.676,N,4.955,K,A*30
$GPGGA,095034.00,2458.04535,N,12111.46845,E,1,09,0.93,144.3,M,16.4,M,,*50
$GPGSA,A,3,25,14,10,26,29,20,22,31,32,,,,1.75,0.93,1.47*04
$GPGSV,4,1,13,10,40,187,44,12,04,036,,14,51,340,34,16,10,211,35*74
$GPGSV,4,2,13,20,15,170,30,22,10,315,31,25,46,041,41,26,37,215,38*72
$GPGSV,4,3,13,29,23,110,25,31,48,310,37,32,68,034,44,42,54,141,30*71
$GPGSV,4,4,13,50,51,133,33*4B
$GPGLL,2458.04535,N,12111.46845,E,095034.00,A,A*67
$GPRMC,095035.00,A,2458.04470,N,12111.46819,E,2.222,197.00,121119,,,A*6C
$GPVTG,197.00,T,,M,2.222,N,4.116,K,A*30
$GPGGA,095035.00,2458.04470,N,12111.46819,E,1,09,0.93,144.2,M,16.4,M,,*59
$GPGSA,A,3,25,14,10,26,29,20,22,31,32,,,,1.75,0.93,1.47*04
$GPGSV,4,1,13,10,40,187,35,12,04,036,,14,51,340,34,16,10,211,41*71
$GPGSV,4,2,13,20,15,170,37,22,10,315,25,25,46,041,40,26,37,215,38*71
$GPGSV,4,3,13,29,23,110,25,31,48,310,35,32,68,034,37,42,54,141,34*73
$GPGSV,4,4,13,50,51,133,34*4C
$GPGLL,2458.04470,N,12111.46819,E,095035.00,A,A*6F
$GPRMC,095036.00,A,2458.04403,N,12111.46775,E,2.474,209.38,121119,,,A*64
$GPVTG,209.38,T,,M,2.474,N,4.581,K,A*30
$GPGGA,095036.00,2458.04403,N,12111.46775,E,1,09,0.93,144.4,M,16.4,M,,*5D
$GPGSA,A,3,25,14,10,26,29,20,22,31,32,,,,1.75,0.93,1.47*04
$GPGSV,4,1,13,10,40,187,41,12,04,036,16,14,51,340,34,16,10,211,36*75
$GPGSV,4,2,13,20,15,170,34,22,10,315,25,25,46,041,37,26,37,215,35*7F
$GPGSV,4,3,13,29,23,110,25,31,48,310,32,32,68,034,41,42,54,141,37*76
$GPGSV,4,4,13,50,51,133,39*41
$GPGLL,2458.04403,N,12111.46775,E,095036.00,A,A*6D
$GPRMC,095037.00,A,2458.04335,N,12111.46760,E,1.711,,121119,,,A*7E
$GPVTG,,T,,M,1.711,N,3.168,K,A*29
$GPGGA,095037.00,2458.04335,N,12111.46760,E,1,09,0.93,145.3,M,16.4,M,,*5C
$GPGSA,A,3,25,14,10,26,29,20,22,31,32,,,,1.75,0.93,1.47*04
$GPGSV,4,1,13,10,40,187,40,12,04,036,15,14,51,340,32,16,10,211,34*73
$GPGSV,4,2,13,20,15,170,34,22,10,315,31,25,46,041,40,26,38,216,34*77
$GPGSV,4,3,13,29,23,110,25,31,48,310,35,32,68,034,40,42,54,141,37*70
$GPGSV,4,4,13,50,51,133,39*41
$GPGLL,2458.04335,N,12111.46760,E,095037.00,A,A*6A
$GPRMC,095038.00,A,2458.04307,N,12111.46747,E,0.831,,121119,,,A*79
$GPVTG,,T,,M,0.831,N,1.540,K,A*29
$GPGGA,095038.00,2458.04307,N,12111.46747,E,1,09,0.93,144.8,M,16.4,M,,*5D
$GPGSA,A,3,25,14,10,26,29,20,22,31,32,,,,1.75,0.93,1.47*04
$GPGSV,4,1,13,10,40,187,41,12,04,036,,14,51,340,27,16,10,211,33*75
$GPGSV,4,2,13,20,15,170,35,22,10,315,27,25,46,041,28,26,38,216,30*7B
$GPGSV,4,3,13,29,23,110,26,31,48,310,36,32,68,034,37,42,54,141,38*7F
$GPGSV,4,4,13,50,51,133,40*4F
$GPGLL,2458.04307,N,12111.46747,E,095038.00,A,A*61
$GPRMC,095039.00,A,2458.04287,N,12111.46721,E,1.182,,121119,,,A*71
$GPVTG,,T,,M,1.182,N,2.189,K,A*2B
$GPGGA,095039.00,2458.04287,N,12111.46721,E,1,09,0.93,144.9,M,16.4,M,,*54
$GPGSA,A,3,25,14,10,26,29,20,22,31,32,,,,1.75,0.93,1.47*04
$GPGSV,4,1,13,10,40,187,39,12,04,036,,14,51,340,24,16,10,211,33*79
$GPGSV,4,2,13,20,15,170,32,22,10,315,26,25,46,041,36,26,38,216,35*77
$GPGSV,4,3,13,29,23,110,27,31,48,310,37,32,68,034,42,42,54,141,38*7D
$GPGSV,4,4,13,50,51,133,40*4F
$GPGLL,2458.04287,N,12111.46721,E,095039.00,A,A*69
$GPRMC,095040.00,A,2458.04271,N,12111.46654,E,1.403,229.67,121119,,,A*6F
$GPVTG,229.67,T,,M,1.403,N,2.598,K,A*35
$GPGGA,095040.00,2458.04271,N,12111.46654,E,1,09,0.93,145.5,M,16.4,M,,*5D
$GPGSA,A,3,25,14,10,26,29,20,22,31,32,,,,1.75,0.93,1.47*04
$GPGSV,4,1,13,10,40,187,36,12,04,036,,14,51,340,31,16,10,211,29*79
$GPGSV,4,2,13,20,15,170,31,22,10,315,27,25,46,041,39,26,38,216,35*7A
$GPGSV,4,3,13,29,24,109,35,31,48,310,32,32,68,034,43,42,54,141,40*7A
$GPGSV,4,4,13,50,51,133,42*4D
$GPGLL,2458.04271,N,12111.46654,E,095040.00,A,A*6D
$GPRMC,095041.00,A,2458.04262,N,12111.46624,E,0.585,,121119,,,A*73
$GPVTG,,T,,M,0.585,N,1.084,K,A*26
$GPTXT,01,01,02,u-blox ag - www.u-blox.com*50
$GPTXT,01,01,02,HW  UBX-G60xx  00040007 FF7FFFFFp*53
$GPTXT,01,01,02,ROM CORE 7.03 (45969) Mar 17 2011 16:18:34*59
$GPTXT,01,01,02,ANTSUPERV=AC SD PDoS SR*20
$GPTXT,01,01,02,ANTSTATUS=OK*3B
$GPRMC,095052.00,A,2458.03953,N,12111.45924,E,2.050,250.14,121119,,,A*60
$GPVTG,250.14,T,,M,2.050,N,3.796,K,A*33
$GPGGA,095052.00,2458.03953,N,12111.45924,E,1,09,0.93,149.1,M,16.4,M,,*51
$GPGSA,A,3,25,14,10,26,29,20,22,31,32,,,,1.75,0.93,1.48*0B
$GPGSV,3,1,12,10,40,187,37,12,04,036,,14,51,340,28,16,10,211,24*7B
$GPGSV,3,2,12,20,15,170,40,22,10,315,25,25,46,041,31,26,38,216,33*76
$GPGSV,3,3,12,29,24,109,36,31,48,311,35,32,69,035,36,50,51,133,28*76
$GPGLL,2458.03953,N,12111.45924,E,095052.00,A,A*69
$GPRMC,095053.00,A,2458.03934,N,12111.45846,E,1.761,250.78,121119,,,A*69
$GPVTG,250.78,T,,M,1.761,N,3.261,K,A*32
$GPGGA,095053.00,2458.03934,N,12111.45846,E,1,09,0.93,149.5,M,16.4,M,,*50
$GPGSA,A,3,25,14,10,26,29,20,22,31,32,,,,1.75,0.93,1.48*0B
$GPGSV,3,1,12,10,40,187,32,12,04,036,,14,51,340,29,16,10,211,24*7F
$GPGSV,3,2,12,20,15,170,34,22,10,315,25,25,46,041,30,26,38,216,38*7F
$GPGSV,3,3,12,29,24,109,27,31,48,311,34,32,69,035,36,50,51,133,28*77
$GPGLL,2458.03934,N,12111.45846,E,095053.00,A,A*6C
$GPRMC,095054.00,A,2458.03925,N,12111.45750,E,1.856,255.54,121119,,,A*66
$GPVTG,255.54,T,,M,1.856,N,3.438,K,A*38
$GPGGA,095054.00,2458.03925,N,12111.45750,E,1,09,0.93,149.6,M,16.4,M,,*5C
$GPGSA,A,3,25,14,10,26,29,20,22,31,32,,,,1.75,0.93,1.48*0B
$GPGSV,3,1,12,10,40,187,35,12,04,036,,14,51,340,30,16,10,211,25*71
$GPGSV,3,2,12,20,15,170,28,22,10,315,25,25,46,041,29,26,38,216,39*7B
$GPGSV,3,3,12,29,24,109,32,31,48,311,35,32,69,035,35,50,51,133,29*70
$GPGLL,2458.03925,N,12111.45750,E,095054.00,A,A*63
$GPRMC,095055.00,A,2458.03937,N,12111.45655,E,1.657,252.11,121119,,,A*69
$GPVTG,252.11,T,,M,1.657,N,3.070,K,A*39
$GPGGA,095055.00,2458.03937,N,12111.45655,E,1,09,0.93,148.8,M,16.4,M,,*55
$GPGSA,A,3,25,14,10,26,29,20,22,31,32,,,,1.75,0.93,1.48*0B
$GPGSV,3,1,12,10,40,187,38,12,04,036,14,14,51,340,33,16,10,211,26*79
$GPGSV,3,2,12,20,15,170,42,22,10,315,25,25,46,041,28,26,38,216,29*77
$GPGSV,3,3,12,29,24,109,35,31,48,311,41,32,69,035,41,50,51,133,33*7C
$GPGLL,2458.03937,N,12111.45655,E,095055.00,A,A*65
$GPRMC,095056.00,A,2458.03910,N,12111.45537,E,2.663,254.75,121119,,,A*68
$GPVTG,254.75,T,,M,2.663,N,4.932,K,A*31
$GPGGA,095056.00,2458.03910,N,12111.45537,E,1,09,0.93,149.9,M,16.4,M,,*54
$GPGSA,A,3,25,14,10,26,29,20,22,31,32,,,,1.75,0.93,1.48*0B
$GPGSV,3,1,12,10,40,187,38,12,04,036,,14,51,340,28,16,10,211,26*76
$GPGSV,3,2,12,20,15,170,39,22,10,315,25,25,46,041,33,26,38,216,33*7A
$GPGSV,3,3,12,29,24,109,38,31,48,311,32,32,69,035,36,50,51,133,30*76
$GPGLL,2458.03910,N,12111.45537,E,095056.00,A,A*64
$GPRMC,095057.00,A,2458.03885,N,12111.45481,E,1.081,,121119,,,A*7E
$GPVTG,,T,,M,1.081,N,2.002,K,A*2B
$GPGGA,095057.00,2458.03885,N,12111.45481,E,1,09,0.93,149.4,M,16.4,M,,*59
$GPGSA,A,3,25,14,10,26,29,20,22,31,32,,,,1.75,0.93,1.48*0B
$GPGSV,3,1,12,10,40,187,40,12,04,036,16,14,51,340,29,16,10,211,25*7C
$GPGSV,3,2,12,20,15,170,40,22,10,315,26,25,46,041,33,26,38,216,33*77
$GPGSV,3,3,12,29,24,109,32,31,48,311,35,32,69,035,41,50,51,133,35*7E
$GPGLL,2458.03885,N,12111.45481,E,095057.00,A,A*64
$GPRMC,095058.00,A,2458.03881,N,12111.45425,E,1.223,,121119,,,A*71
$GPVTG,,T,,M,1.223,N,2.264,K,A*23
$GPGGA,095058.00,2458.03881,N,12111.45425,E,1,09,0.93,149.2,M,16.4,M,,*5A
$GPGSA,A,3,25,14,10,26,29,20,22,31,32,,,,1.75,0.93,1.48*0B
$GPGSV,3,1,12,10,40,187,38,12,04,036,14,14,51,340,29,16,10,211,24*70
$GPGSV,3,2,12,20,15,170,33,22,10,315,26,25,46,041,34,26,38,216,38*7F
$GPGSV,3,3,12,29,24,109,31,31,48,311,33,32,69,035,36,50,51,133,30*7E
$GPGLL,2458.03881,N,12111.45425,E,095058.00,A,A*61
$GPRMC,095059.00,A,2458.03865,N,12111.45360,E,1.840,251.71,121119,,,A*6D
$GPVTG,251.71,T,,M,1.840,N,3.407,K,A*30
$GPGGA,095059.00,2458.03865,N,12111.45360,E,1,09,0.93,149.9,M,16.4,M,,*5C
$GPGSA,A,3,25,14,10,26,29,20,22,31,32,,,,1.75,0.93,1.48*0B
$GPGSV,3,1,12,10,40,187,42,12,04,036,,14,51,340,27,16,10,211,24*76
$GPGSV,3,2,12,20,15,170,36,22,10,315,24,25,46,041,37,26,38,216,31*72
$GPGSV,3,3,12,29,24,109,32,31,48,311,34,32,69,035,42,50,51,133,31*78
$GPGLL,2458.03865,N,12111.45360,E,095059.00,A,A*6C
$GPRMC,095100.00,A,2458.03861,N,12111.45273,E,2.319,250.09,121119,,,A*6D
$GPVTG,250.09,T,,M,2.319,N,4.295,K,A*30
$GPGGA,095100.00,2458.03861,N,12111.45273,E,1,09,0.93,149.2,M,16.4,M,,*5D
$GPGSA,A,3,25,14,10,26,29,20,22,31,32,,,,1.75,0.93,1.48*0B
$GPGSV,3,1,12,10,40,187,42,12,04,036,,14,51,340,33,16,10,211,25*72
$GPGSV,3,2,12,20,15,170,43,22,10,315,24,25,46,041,35,26,38,216,34*77
$GPGSV,3,3,12,29,24,109,31,31,48,311,31,32,69,035,38,50,51,133,34*76
$GPGLL,2458.03861,N,12111.45273,E,095100.00,A,A*66
$GPRMC,095101.00,A,2458.03835,N,12111.45170,E,1.631,260.03,121119,,,A*68
$GPVTG,260.03,T,,M,1.631,N,3.020,K,A*3E
$GPGGA,095101.00,2458.03835,N,12111.45170,E,1,09,1.32,150.6,M,16.4,M,,*5B
$GPGSA,A,3,25,14,10,26,29,20,22,31,32,,,,3.23,1.32,2.95*03
$GPGSV,3,1,12,10,40,187,40,12,04,036,15,14,51,340,33,16,10,211,24*75
$GPGSV,3,2,12,20,15,170,38,22,10,315,29,25,46,041,26,26,38,216,39*79
$GPGSV,3,3,12,29,24,109,34,31,48,311,32,32,69,035,36,50,51,133,33*79
$GPGLL,2458.03835,N,12111.45170,E,095101.00,A,A*66
$GPRMC,095102.00,A,2458.03846,N,12111.45066,E,1.865,262.70,121119,,,A*60
$GPVTG,262.70,T,,M,1.865,N,3.455,K,A*31
$GPGGA,095102.00,2458.03846,N,12111.45066,E,1,09,1.32,150.7,M,16.4,M,,*5B
$GPGSA,A,3,25,14,10,26,29,20,22,31,32,,,,3.23,1.32,2.95*03
$GPGSV,3,1,12,10,40,187,37,12,04,036,15,14,51,340,28,16,10,211,23*78
$GPGSV,3,2,12,20,15,170,43,22,10,315,26,25,46,041,33,26,38,216,37*70
$GPGSV,3,3,12,29,24,109,29,31,48,311,36,32,69,035,42,50,51,133,36*77
$GPGLL,2458.03846,N,12111.45066,E,095102.00,A,A*67
$GPRMC,095103.00,A,2458.03874,N,12111.44977,E,1.520,267.88,121119,,,A*66
$GPVTG,267.88,T,,M,1.520,N,2.816,K,A*35
$GPGGA,095103.00,2458.03874,N,12111.44977,E,1,09,0.93,149.6,M,16.4,M,,*50
$GPGSA,A,3,25,14,10,26,29,20,22,31,32,,,,1.75,0.93,1.48*0B
$GPGSV,3,1,12,10,40,187,41,12,04,036,16,14,51,340,32,16,10,211,22*70
$GPGSV,3,2,12,20,15,170,36,22,10,315,26,25,46,041,28,26,38,216,32*7D
$GPGSV,3,3,12,29,24,109,28,31,48,311,33,32,69,035,44,50,51,133,30*73
$GPGLL,2458.03874,N,12111.44977,E,095103.00,A,A*6F
$GPRMC,095104.00,A,2458.03914,N,12111.44879,E,2.314,280.86,121119,,,A*6C
$GPVTG,280.86,T,,M,2.314,N,4.285,K,A*36
$GPGGA,095104.00,2458.03914,N,12111.44879,E,1,09,0.93,149.3,M,16.4,M,,*5A
$GPGSA,A,3,25,14,10,26,29,20,22,31,32,,,,1.75,0.93,1.48*0B
$GPGSV,3,1,12,10,40,187,27,12,04,036,,14,51,340,37,16,10,211,29*79
$GPGSV,3,2,12,20,15,170,26,22,10,315,25,25,46,041,42,26,38,216,35*74
$GPGSV,3,3,12,29,24,109,30,31,48,311,29,32,69,035,41,50,51,133,36*72
$GPGLL,2458.03914,N,12111.44879,E,095104.00,A,A*60
$GPRMC,095105.00,A,2458.03915,N,12111.44818,E,1.232,,121119,,,A*77
$GPVTG,,T,,M,1.232,N,2.281,K,A*28
$GPGGA,095105.00,2458.03915,N,12111.44818,E,1,09,0.93,147.8,M,16.4,M,,*58
$GPGSA,A,3,25,14,10,26,29,20,22,31,32,,,,1.75,0.93,1.48*0B
$GPGSV,4,1,13,10,40,187,36,12,04,036,16,14,51,340,27,16,10,211,24*74
$GPGSV,4,2,13,20,15,170,27,22,10,315,24,25,46,041,39,26,38,216,32*79
$GPGSV,4,3,13,29,24,109,30,31,48,311,34,32,69,035,39,42,54,141,31*73
$GPGSV,4,4,13,50,51,133,36*4E
$GPGLL,2458.03915,N,12111.44818,E,095105.00,A,A*67
$GPRMC,095106.00,A,2458.03897,N,12111.44739,E,1.596,,121119,,,A*7A
$GPVTG,,T,,M,1.596,N,2.955,K,A*23
$GPGGA,095106.00,2458.03897,N,12111.44739,E,1,09,0.93,148.2,M,16.4,M,,*59
$GPGSA,A,3,25,14,10,26,29,20,22,31,32,,,,1.75,0.93,1.48*0B
$GPGSV,4,1,13,10,40,187,31,12,04,036,17,14,51,340,28,16,10,211,31*79
$GPGSV,4,2,13,20,15,170,31,22,10,315,25,25,46,041,35,26,38,216,41*77
$GPGSV,4,3,13,29,24,109,36,31,48,311,32,32,69,035,36,42,54,141,39*74
$GPGSV,4,4,13,50,51,133,40*4F
$GPGLL,2458.03897,N,12111.44739,E,095106.00,A,A*63
$GPRMC,095107.00,A,2458.03906,N,12111.44668,E,1.034,,121119,,,A*7A
$GPVTG,,T,,M,1.034,N,1.915,K,A*29
$GPGGA,095107.00,2458.03906,N,12111.44668,E,1,09,0.93,147.8,M,16.4,M,,*51
$GPGSA,A,3,25,14,10,26,29,20,22,31,32,,,,1.75,0.93,1.48*0B
$GPGSV,4,1,13,10,40,187,33,12,04,036,17,14,51,340,28,16,10,211,32*78
$GPGSV,4,2,13,20,15,170,32,22,10,315,24,25,46,041,31,26,38,216,36*71
$GPGSV,4,3,13,29,24,109,29,31,48,311,36,32,69,035,38,42,54,141,36*7F
$GPGSV,4,4,13,50,51,133,38*40
$GPGLL,2458.03906,N,12111.44668,E,095107.00,A,A*6E
$GPRMC,095108.00,A,2458.03881,N,12111.44577,E,1.393,,121119,,,A*78
$GPVTG,,T,,M,1.393,N,2.580,K,A*24
$GPGGA,095108.00,2458.03881,N,12111.44577,E,1,09,0.93,148.7,M,16.4,M,,*5D
$GPGSA,A,3,25,14,10,26,29,20,22,31,32,,,,1.75,0.93,1.48*0B
$GPGSV,4,1,13,10,40,187,31,12,04,036,16,14,51,340,32,16,10,211,25*76
$GPGSV,4,2,13,20,15,170,32,22,10,315,24,25,46,041,29,26,38,216,39*77
$GPGSV,4,3,13,29,24,109,37,31,48,311,29,32,69,035,35,42,54,141,34*71
$GPGSV,4,4,13,50,51,133,36*4E
$GPGLL,2458.03881,N,12111.44577,E,095108.00,A,A*62
$GPRMC,095109.00,A,2458.03879,N,12111.44514,E,1.292,,121119,,,A*7B
$GPVTG,,T,,M,1.292,N,2.393,K,A*20
$GPGGA,095109.00,2458.03879,N,12111.44514,E,1,09,0.93,148.7,M,16.4,M,,*5E
$GPGSA,A,3,25,14,10,26,29,20,22,31,32,,,,1.75,0.93,1.48*0B
$GPGSV,4,1,13,10,40,187,37,12,04,036,18,14,51,340,34,16,10,211,32*7E
$GPGSV,4,2,13,20,15,170,31,22,10,315,24,25,46,041,34,26,38,216,27*77
$GPGSV,4,3,13,29,24,109,34,31,48,311,33,32,69,035,34,42,54,141,36*7A
$GPGSV,4,4,13,50,51,133,40*4F
$GPGLL,2458.03879,N,12111.44514,E,095109.00,A,A*61
$GPRMC,095110.00,A,2458.03862,N,12111.44360,E,2.386,264.48,121119,,,A*69
$GPVTG,264.48,T,,M,2.386,N,4.418,K,A*37
$GPGGA,095110.00,2458.03862,N,12111.44360,E,1,09,0.93,148.9,M,16.4,M,,*57
$GPGSA,A,3,25,14,10,26,29,20,22,31,32,,,,1.75,0.93,1.48*0B
$GPGSV,3,1,12,10,40,187,34,12,04,036,18,14,51,340,28,16,10,211,32*76
$GPGSV,3,2,12,20,15,170,27,22,10,315,23,25,46,041,31,26,38,216,41*74
$GPGSV,3,3,12,29,24,109,37,31,48,311,35,32,69,035,36,42,54,141,29*75
$GPGLL,2458.03862,N,12111.44360,E,095110.00,A,A*66
$GPRMC,095111.00,A,2458.03873,N,12111.44243,E,1.891,259.07,121119,,,A*63
$GPVTG,259.07,T,,M,1.891,N,3.501,K,A*32
$GPGGA,095111.00,2458.03873,N,12111.44243,E,1,09,0.93,148.5,M,16.4,M,,*5A
$GPGSA,A,3,25,14,10,26,29,20,22,31,32,,,,1.75,0.93,1.48*0B
$GPTXT,01,01,02,u-blox ag - www.u-blox.com*50
$GPTXT,01,01,02,HW  UBX-G60xx  00040007 FF7FFFFFp*53
$GPTXT,01,01,02,ROM CORE 7.03 (45969) Mar 17 2011 16:18:34*59
$GPTXT,01,01,02,ANTSUPERV=AC SD PDoS SR*20
$GPTXT,01,01,02,ANTSTATUS=OK*3B
$GPRMC,095124.00,A,2458.03855,N,12111.42932,E,1.681,253.16,121119,,,A*6F
$GPVTG,253.16,T,,M,1.681,N,3.112,K,A*31
$GPGGA,095124.00,2458.03855,N,12111.42932,E,1,09,0.93,146.0,M,16.4,M,,*58
$GPGSA,A,3,25,14,10,26,29,20,22,31,32,,,,1.75,0.93,1.48*0B
$GPGSV,3,1,12,10,40,187,35,12,04,036,14,14,51,340,29,16,10,211,25*7C
$GPGSV,3,2,12,20,15,170,23,22,10,315,31,25,46,041,34,26,38,216,33*73
$GPGSV,3,3,12,29,24,109,28,31,48,311,32,32,69,035,41,50,51,133,30*77
$GPGLL,2458.03855,N,12111.42932,E,095124.00,A,A*6E
$GPRMC,095125.00,A,2458.03826,N,12111.42849,E,1.681,249.79,121119,,,A*65
$GPVTG,249.79,T,,M,1.681,N,3.113,K,A*32
$GPGGA,095125.00,2458.03826,N,12111.42849,E,1,09,0.93,146.2,M,16.4,M,,*52
$GPGSA,A,3,25,14,10,26,29,20,22,31,32,,,,1.75,0.93,1.48*0B
$GPGSV,4,1,13,10,40,187,30,12,04,036,14,14,51,340,28,16,10,211,25*7E
$GPGSV,4,2,13,20,15,170,22,22,10,315,26,25,46,041,34,26,38,216,43*75
$GPGSV,4,3,13,29,24,109,32,31,48,311,33,32,69,035,36,42,54,141,34*7C
$GPGSV,4,4,13,50,51,133,35*4D
$GPGLL,2458.03826,N,12111.42849,E,095125.00,A,A*66
$GPRMC,095126.00,A,2458.03835,N,12111.42741,E,2.213,265.81,121119,,,A*66
$GPVTG,265.81,T,,M,2.213,N,4.098,K,A*32
$GPGGA,095126.00,2458.03835,N,12111.42741,E,1,09,0.93,146.1,M,16.4,M,,*57
$GPGSA,A,3,25,14,10,26,29,20,22,31,32,,,,1.75,0.93,1.48*0B
$GPGSV,4,1,13,10,40,187,45,12,04,036,15,14,51,340,29,16,10,211,26*7F
$GPGSV,4,2,13,20,15,170,22,22,10,315,26,25,46,041,32,26,38,216,42*72
$GPGSV,4,3,13,29,24,109,33,31,48,311,36,32,69,035,36,42,54,141,29*74
$GPGSV,4,4,13,50,51,133,33*4B
$GPGLL,2458.03835,N,12111.42741,E,095126.00,A,A*60
$GPRMC,095127.00,A,2458.03838,N,12111.42664,E,1.296,,121119,,,A*74
$GPVTG,,T,,M,1.296,N,2.401,K,A*28
$GPGGA,095127.00,2458.03838,N,12111.42664,E,1,09,0.93,145.4,M,16.4,M,,*5B
$GPGSA,A,3,25,14,10,26,29,20,22,31,32,,,,1.75,0.93,1.48*0B
$GPGSV,4,1,13,10,40,187,42,12,04,036,,14,51,340,28,16,10,211,*79
$GPGSV,4,2,13,20,15,170,22,22,10,315,26,25,46,041,32,26,38,216,43*73
$GPGSV,4,3,13,29,24,109,28,31,48,311,29,32,69,035,39,42,54,141,29*7F
$GPGSV,4,4,13,50,51,133,33*4B
$GPGLL,2458.03838,N,12111.42664,E,095127.00,A,A*6A
$GPRMC,095128.00,A,2458.03859,N,12111.42570,E,2.102,266.59,121119,,,A*67
$GPVTG,266.59,T,,M,2.102,N,3.892,K,A*32
$GPGGA,095128.00,2458.03859,N,12111.42570,E,1,09,0.93,144.3,M,16.4,M,,*53
$GPGSA,A,3,25,14,10,26,29,20,22,31,32,,,,1.75,0.93,1.48*0B
$GPGSV,4,1,13,10,40,187,44,12,04,036,,14,51,340,28,16,10,211,25*78
$GPGSV,4,2,13,20,15,170,24,22,10,315,30,25,46,041,33,26,38,216,46*76
$GPGSV,4,3,13,29,24,109,29,31,48,311,35,32,69,035,38,42,54,141,34*7E
$GPGSV,4,4,13,50,51,133,38*40
$GPGLL,2458.03859,N,12111.42570,E,095128.00,A,A*64
$GPRMC,095129.00,A,2458.03877,N,12111.42461,E,2.379,264.40,121119,,,A*6F
$GPVTG,264.40,T,,M,2.379,N,4.405,K,A*33
$GPGGA,095129.00,2458.03877,N,12111.42461,E,1,09,0.93,143.2,M,16.4,M,,*59
$GPGSA,A,3,25,14,10,26,29,20,22,31,32,,,,1.75,0.93,1.48*0B
$GPGSV,4,1,13,10,40,187,38,12,04,036,,14,51,340,27,16,10,211,*7B
$GPGSV,4,2,13,20,15,170,24,22,10,315,34,25,46,041,29,26,38,216,42*7D
$GPGSV,4,3,13,29,24,109,29,31,48,311,29,32,69,035,32,42,54,141,34*79
$GPGSV,4,4,13,50,51,133,36*4E
$GPGLL,2458.03877,N,12111.42461,E,095129.00,A,A*68
$GPRMC,095130.00,A,2458.03892,N,12111.42375,E,1.723,264.98,121119,,,A*63
$GPVTG,264.98,T,,M,1.723,N,3.191,K,A*31
$GPGGA,095130.00,2458.03892,N,12111.42375,E,1,09,0.93,142.5,M,16.4,M,,*5E
$GPGSA,A,3,25,14,10,26,29,20,22,31,32,,,,1.75,0.93,1.48*0B
$GPGSV,4,1,13,10,40,187,44,12,04,036,,14,51,340,27,16,10,211,*70
$GPGSV,4,2,13,20,15,170,25,22,10,315,33,25,46,041,29,26,38,216,34*7A
$GPGSV,4,3,13,29,24,109,29,31,48,311,30,32,69,035,38,42,54,141,33*7C
$GPGSV,4,4,13,50,51,133,33*4B
$GPGLL,2458.03892,N,12111.42375,E,095130.00,A,A*69
$GPRMC,095131.00,A,2458.03893,N,12111.42300,E,1.724,256.51,121119,,,A*62
$GPVTG,256.51,T,,M,1.724,N,3.193,K,A*30
$GPGGA,095131.00,2458.03893,N,12111.42300,E,1,09,0.93,142.4,M,16.4,M,,*5D
$GPGSA,A,3,25,14,10,26,29,20,22,31,32,,,,1.75,0.93,1.48*0B
$GPGSV,4,1,13,10,40,187,44,12,04,036,,14,51,340,28,16,10,211,28*75
$GPGSV,4,2,13,20,15,170,25,22,10,315,28,25,46,041,29,26,38,216,39*7D
$GPGSV,4,3,13,29,24,109,29,31,48,311,34,32,69,035,35,42,54,141,38*7E
$GPGSV,4,4,13,50,51,133,38*40
$GPGLL,2458.03893,N,12111.42300,E,095131.00,A,A*6B
$GPRMC,095132.00,A,2458.03924,N,12111.42205,E,2.491,277.86,121119,,,A*6F
$GPVTG,277.86,T,,M,2.491,N,4.613,K,A*3F
$GPGGA,095132.00,2458.03924,N,12111.42205,E,1,09,0.93,142.1,M,16.4,M,,*52
$GPGSA,A,3,25,14,10,26,29,20,22,31,32,,,,1.75,0.93,1.48*0B
$GPGSV,4,1,13,10,40,186,42,12,04,036,,14,51,340,28,16,10,211,27*7D
$GPGSV,4,2,13,20,15,170,26,22,10,315,29,25,46,041,30,26,38,216,44*7D
$GPGSV,4,3,13,29,24,109,29,31,48,311,36,32,69,035,26,42,54,141,36*70
$GPGSV,4,4,13,50,51,133,36*4E
$GPGLL,2458.03924,N,12111.42205,E,095132.00,A,A*61
$GPRMC,095133.00,A,2458.03947,N,12111.42104,E,1.365,,121119,,,A*74
$GPVTG,,T,,M,1.365,N,2.527,K,A*20
$GPGGA,095133.00,2458.03947,N,12111.42104,E,1,09,0.93,142.4,M,16.4,M,,*51
$GPGSA,A,3,25,14,10,26,29,20,22,31,32,,,,1.75,0.93,1.48*0B
$GPGSV,4,1,13,10,40,186,40,12,04,036,,14,51,340,27,16,10,211,26*71
$GPGSV,4,2,13,20,15,170,27,22,10,315,28,25,46,041,28,26,38,216,33*74
$GPGSV,4,3,13,29,24,109,36,31,48,311,33,32,69,035,38,42,54,141,33*71
$GPGSV,4,4,13,50,51,133,34*4C
$GPGLL,2458.03947,N,12111.42104,E,095133.00,A,A*67
$GPRMC,095134.00,A,2458.03966,N,12111.42035,E,1.274,,121119,,,A*72
$GPVTG,,T,,M,1.274,N,2.359,K,A*2E
$GPGGA,095134.00,2458.03966,N,12111.42035,E,1,09,0.93,142.7,M,16.4,M,,*55
$GPGSA,A,3,25,14,10,26,29,20,22,31,32,,,,1.75,0.93,1.48*0B
$GPGSV,4,1,13,10,40,186,30,12,03,036,,14,51,340,28,16,10,211,25*7D
$GPGSV,4,2,13,20,15,170,19,22,10,315,29,25,46,041,32,26,38,216,32*72
$GPGSV,4,3,13,29,24,109,32,31,48,311,36,32,69,035,32,42,54,141,37*7E
$GPGSV,4,4,13,50,51,133,39*41
$GPGLL,2458.03966,N,12111.42035,E,095134.00,A,A*60
$GPRMC,095135.00,A,2458.04000,N,12111.41948,E,1.749,279.27,121119,,,A*61
$GPVTG,279.27,T,,M,1.749,N,3.239,K,A*34
$GPGGA,095135.00,2458.04000,N,12111.41948,E,1,09,0.93,141.7,M,16.4,M,,*59
$GPGSA,A,3,25,14,10,26,29,20,22,31,32,,,,1.75,0.93,1.48*0B
$GPGSV,4,1,13,10,40,186,38,12,03,036,,14,51,340,32,16,10,211,24*7F
$GPGSV,4,2,13,20,15,170,28,22,10,315,36,25,46,041,32,26,38,216,40*7B
$GPGSV,4,3,13,29,24,109,29,31,48,311,36,32,69,035,36,42,54,141,35*72
$GPGSV,4,4,13,50,51,133,37*4F
$GPGLL,2458.04000,N,12111.41948,E,095135.00,A,A*6F
$GPRMC,095136.00,A,2458.04042,N,12111.41809,E,2.633,274.60,121119,,,A*61
$GPVTG,274.60,T,,M,2.633,N,4.876,K,A*33
$GPGGA,095136.00,2458.04042,N,12111.41809,E,1,09,0.93,140.4,M,16.4,M,,*5A
$GPGSA,A,3,25,14,10,26,29,20,22,31,32,,,,1.75,0.93,1.48*0B
$GPGSV,4,1,13,10,40,186,34,12,03,036,,14,51,340,26,16,10,211,23*71
$GPGSV,4,2,13,20,15,170,32,22,10,315,36,25,46,041,27,26,38,216,33*70
$GPGSV,4,3,13,29,24,109,36,31,48,311,36,32,69,035,36,42,54,141,36*7F
$GPGSV,4,4,13,50,51,133,37*4F
$GPGLL,2458.04042,N,12111.41809,E,095136.00,A,A*6E
$GPRMC,095137.00,A,2458.04049,N,12111.41662,E,3.315,264.84,121119,,,A*63
$GPVTG,264.84,T,,M,3.315,N,6.139,K,A*38
$GPGGA,095137.00,2458.04049,N,12111.41662,E,1,09,0.93,138.9,M,16.4,M,,*51
$GPGSA,A,3,25,14,10,26,29,20,22,31,32,,,,1.75,0.93,1.48*0B
$GPGSV,4,1,13,10,40,186,34,12,03,036,15,14,51,340,27,16,10,211,24*73
$GPGSV,4,2,13,20,15,170,33,22,10,315,33,25,46,041,40,26,38,216,33*75
$GPGSV,4,3,13,29,24,109,36,31,48,311,33,32,69,035,35,42,54,141,31*7E
$GPGSV,4,4,13,50,51,133,33*4B
$GPGLL,2458.04049,N,12111.41662,E,095137.00,A,A*67
$GPRMC,095138.00,A,2458.04056,N,12111.41579,E,1.520,,121119,,,A*7B
$GPVTG,,T,,M,1.520,N,2.815,K,A*2B
$GPGGA,095138.00,2458.04056,N,12111.41579,E,1,09,0.93,138.2,M,16.4,M,,*52
$GPGSA,A,3,25,14,10,26,29,20,22,31,32,,,,1.75,0.93,1.48*0B
$GPGSV,4,1,13,10,40,186,39,12,03,036,14,14,51,340,32,16,11,211,30*7F
$GPGSV,4,2,13,20,15,170,28,22,10,315,28,25,46,041,30,26,38,216,33*72
$GPGSV,4,3,13,29,24,109,29,31,48,311,37,32,69,035,35,42,54,141,39*7C
$GPGSV,4,4,13,50,51,133,40*4F
$GPGLL,2458.04056,N,12111.41579,E,095138.00,A,A*6F
$GPRMC,095139.00,A,2458.04051,N,12111.41421,E,2.501,264.79,121119,,,A*61
$GPVTG,264.79,T,,M,2.501,N,4.632,K,A*36
$GPGGA,095139.00,2458.04051,N,12111.41421,E,1,09,0.93,140.0,M,16.4,M,,*55
$GPGSA,A,3,25,14,10,26,29,20,22,31,32,,,,1.75,0.93,1.48*0B
$GPGSV,4,1,13,10,40,186,35,12,03,036,,14,51,340,31,16,11,211,25*71
$GPGSV,4,2,13,20,15,170,28,22,10,315,28,25,46,041,38,26,38,216,41*7F
$GPGSV,4,3,13,29,24,109,38,31,48,311,40,32,69,035,34,42,54,141,36*72
$GPGSV,4,4,13,50,51,133,39*41
$GPGLL,2458.04051,N,12111.41421,E,095139.00,A,A*65
$GPRMC,095140.00,A,2458.04053,N,12111.41271,E,3.065,261.48,121119,,,A*6F
$GPVTG,261.48,T,,M,3.065,N,5.676,K,A*36
$GPGGA,095140.00,2458.04053,N,12111.41271,E,1,09,0.93,139.4,M,16.4,M,,*50
$GPGSA,A,3,25,14,10,26,29,20,22,31,32,,,,1.75,0.93,1.48*0B
$GPGSV,4,1,13,10,40,186,40,12,03,036,23,14,51,340,28,16,11,211,25*7A
$GPGSV,4,2,13,20,15,170,28,22,10,315,32,25,46,041,33,26,38,216,39*70
$GPGSV,4,3,13,29,24,109,37,31,48,311,41,32,69,035,38,42,54,141,33*75
$GPGSV,4,4,13,50,51,133,32*4A
$GPGLL,2458.04053,N,12111.41271,E,095140.00,A,A*6A
$GPRMC,095141.00,A,2458.04051,N,12111.41157,E,3.083,261.60,121119,,,A*69
$GPVTG,261.60,T,,M,3.083,N,5.709,K,A*3D
$GPGGA,095141.00,2458.04051,N,12111.41157,E,1,09,0.93,139.1,M,16.4,M,,*51
$GPGSA,A,3,25,14,10,26,29,20,22,31,32,,,,1.75,0.93,1.48*0B
$GPGSV,4,1,13,10,40,186,31,12,03,036,17,14,51,340,32,16,11,211,26*73
$GPGSV,4,2,13,20,15,170,28,22,10,315,35,25,46,041,27,26,38,216,28*72
$GPGSV,4,3,13,29,24,109,36,31,48,311,33,32,69,035,34,42,54,141,34*7A
$GPGSV,4,4,13,50,51,133,36*4E
$GPGLL,2458.04051,N,12111.41157,E,095141.00,A,A*6E
$GPRMC,095142.00,A,2458.04046,N,12111.41080,E,1.388,,121119,,,A*70
$GPVTG,,T,,M,1.388,N,2.570,K,A*21
$GPGGA,095142.00,2458.04046,N,12111.41080,E,1,09,0.93,139.9,M,16.4,M,,*57
$GPGSA,A,3,25,14,10,26,29,20,22,31,32,,,,1.75,0.93,1.48*0B
$GPGSV,4,1,13,10,40,186,31,12,03,036,17,14,51,340,31,16,11,211,25*73
$GPGSV,4,2,13,20,14,170,17,22,10,315,31,25,46,041,27,26,38,216,28*7B
$GPGSV,4,3,13,29,24,109,36,31,48,311,39,32,69,035,31,42,54,141,30*71
$GPGSV,4,4,13,50,51,133,32*4A
$GPGLL,2458.04046,N,12111.41080,E,095142.00,A,A*60
$GPRMC,095143.00,A,2458.04041,N,12111.40993,E,2.628,259.96,121119,,,A*6F
$GPVTG,259.96,T,,M,2.628,N,4.866,K,A*3E
$GPGGA,095143.00,2458.04041,N,12111.40993,E,1,09,0.93,139.8,M,16.4,M,,*5A
$GPGSA,A,3,25,14,10,26,29,20,22,31,32,,,,1.75,0.93,1.48*0B
$GPGSV,4,1,13,10,40,186,35,12,03,036,17,14,51,340,31,16,11,211,25*77
$GPGSV,4,2,13,20,14,170,28,22,10,315,31,25,46,041,33,26,38,216,36*7D
$GPGSV,4,3,13,29,24,109,34,31,48,311,35,32,69,035,32,42,54,141,28*75
$GPGSV,4,4,13,50,51,133,31*49
$GPGLL,2458.04041,N,12111.40993,E,095143.00,A,A*6C
$GPRMC,095144.00,A,2458.04012,N,12111.40910,E,2.041,250.06,121119,,,A*6C
$GPTXT,01,01,02,u-blox ag - www.u-blox.com*50
$GPTXT,01,01,02,HW  UBX-G60xx  00040007 FF7FFFFFp*53
$GPTXT,01,01,02,ROM CORE 7.03 (45969) Mar 17 2011 16:18:34*59
$GPTXT,01,01,02,ANTSUPERV=AC SD PDoS SR*20
$GPTXT,01,01,02,ANTSTATUS=OK*3B
$GPRMC,095156.00,A,2458.04177,N,12111.39677,E,1.673,276.38,121119,,,A*60
$GPVTG,276.38,T,,M,1.673,N,3.099,K,A*35
$GPGGA,095156.00,2458.04177,N,12111.39677,E,1,09,1.33,139.1,M,16.4,M,,*53
$GPGSA,A,3,25,14,10,26,29,20,22,31,32,,,,3.22,1.33,2.93*05
$GPGSV,3,1,12,10,40,186,33,12,03,036,22,14,51,340,31,16,11,211,31*74
$GPGSV,3,2,12,20,14,170,27,22,11,315,25,25,45,041,42,26,38,216,36*75
$GPGSV,3,3,12,29,24,108,29,31,49,312,31,32,69,037,45,50,51,133,30*70
$GPGLL,2458.04177,N,12111.39677,E,095156.00,A,A*67
$GPRMC,095157.00,A,2458.04167,N,12111.39625,E,1.337,,121119,,,A*74
$GPVTG,,T,,M,1.337,N,2.476,K,A*22
$GPGGA,095157.00,2458.04167,N,12111.39625,E,1,09,0.93,139.5,M,16.4,M,,*5B
$GPGSA,A,3,25,14,10,26,29,20,22,31,32,,,,1.75,0.93,1.48*0B
$GPGSV,3,1,12,10,40,186,30,12,03,036,20,14,51,340,31,16,11,211,34*70
$GPGSV,3,2,12,20,14,170,28,22,11,315,24,25,45,041,41,26,38,216,33*7D
$GPGSV,3,3,12,29,24,108,28,31,49,312,27,32,69,037,44,50,51,133,38*7F
$GPGLL,2458.04167,N,12111.39625,E,095157.00,A,A*60
$GPRMC,095158.00,A,2458.04174,N,12111.39553,E,1.936,277.59,121119,,,A*60
$GPVTG,277.59,T,,M,1.936,N,3.585,K,A*35
$GPGGA,095158.00,2458.04174,N,12111.39553,E,1,09,0.93,139.8,M,16.4,M,,*59
$GPGSA,A,3,25,14,10,26,29,20,22,31,32,,,,1.75,0.93,1.48*0B
$GPGSV,3,1,12,10,40,186,36,12,03,036,19,14,51,340,32,16,11,211,29*73
$GPGSV,3,2,12,20,14,170,27,22,11,315,24,25,45,041,41,26,38,216,28*78
$GPGSV,3,3,12,29,24,108,35,31,49,312,32,32,69,037,43,50,51,133,36*7E
$GPGLL,2458.04174,N,12111.39553,E,095158.00,A,A*6F
$GPRMC,095159.00,A,2458.04170,N,12111.39469,E,2.474,273.14,121119,,,A*68
$GPVTG,273.14,T,,M,2.474,N,4.582,K,A*30
$GPGGA,095159.00,2458.04170,N,12111.39469,E,1,09,0.93,140.2,M,16.4,M,,*50
$GPGSA,A,3,25,14,10,26,29,20,22,31,32,,,,1.75,0.93,1.48*0B
$GPGSV,3,1,12,10,40,186,40,12,03,036,19,14,51,340,31,16,11,211,34*7D
$GPGSV,3,2,12,20,14,170,27,22,11,315,25,25,45,041,39,26,38,216,43*7B
$GPGSV,3,3,12,29,24,108,32,31,49,312,28,32,69,037,45,50,51,133,33*71
$GPGLL,2458.04170,N,12111.39469,E,095159.00,A,A*62
$GPRMC,095200.00,A,2458.04162,N,12111.39392,E,1.975,270.81,121119,,,A*67
$GPVTG,270.81,T,,M,1.975,N,3.658,K,A*33
$GPGGA,095200.00,2458.04162,N,12111.39392,E,1,09,0.93,140.6,M,16.4,M,,*5B
$GPGSA,A,3,25,14,10,26,29,20,22,31,32,,,,1.75,0.93,1.48*0B
$GPGSV,3,1,12,10,40,186,35,12,03,036,20,14,51,340,25,16,11,211,23*76
$GPGSV,3,2,12,20,14,170,25,22,11,315,26,25,45,041,40,26,38,216,37*77
$GPGSV,3,3,12,29,24,108,32,31,49,312,36,32,69,037,35,50,51,133,34*7E
$GPGLL,2458.04162,N,12111.39392,E,095200.00,A,A*6D
$GPRMC,095201.00,A,2458.04145,N,12111.39341,E,1.454,,121119,,,A*71
$GPVTG,,T,,M,1.454,N,2.693,K,A*29
$GPGGA,095201.00,2458.04145,N,12111.39341,E,1,09,0.93,141.1,M,16.4,M,,*57
$GPGSA,A,3,25,14,10,26,29,20,22,31,32,,,,1.75,0.93,1.48*0B
$GPGSV,3,1,12,10,40,186,39,12,03,036,20,14,51,340,30,16,11,211,25*78
$GPGSV,3,2,12,20,14,170,25,22,11,315,25,25,45,041,37,26,38,216,36*75
$GPGSV,3,3,12,29,24,108,31,31,49,312,33,32,69,037,39,50,51,133,33*73
$GPGLL,2458.04145,N,12111.39341,E,095201.00,A,A*67
$GPRMC,095202.00,A,2458.04135,N,12111.39265,E,2.537,266.71,121119,,,A*6F
$GPVTG,266.71,T,,M,2.537,N,4.698,K,A*39
$GPGGA,095202.00,2458.04135,N,12111.39265,E,1,09,0.93,141.4,M,16.4,M,,*51
$GPGSA,A,3,25,14,10,26,29,20,22,31,32,,,,1.75,0.93,1.48*0B
$GPGSV,3,1,12,10,40,186,30,12,03,036,20,14,51,340,30,16,11,211,25*71
$GPGSV,3,2,12,20,14,170,30,22,11,315,24,25,45,041,35,26,38,216,32*76
$GPGSV,3,3,12,29,24,108,31,31,49,312,34,32,69,037,37,50,51,133,32*7B
$GPGLL,2458.04135,N,12111.39265,E,095202.00,A,A*64
$GPRMC,095203.00,A,2458.04130,N,12111.39188,E,2.093,265.45,121119,,,A*64
$GPVTG,265.45,T,,M,2.093,N,3.877,K,A*3E
$GPGGA,095203.00,2458.04130,N,12111.39188,E,1,09,0.93,142.1,M,16.4,M,,*53
$GPGSA,A,3,25,14,10,26,29,20,22,31,32,,,,1.75,0.93,1.48*0B
$GPGSV,4,1,13,10,40,186,35,12,03,036,21,14,51,340,34,16,11,211,26*74
$GPGSV,4,2,13,20,14,170,30,22,11,315,31,25,45,041,28,26,38,216,37*7D
$GPGSV,4,3,13,29,24,108,33,31,49,312,37,32,69,037,32,42,54,141,32*7A
$GPGSV,4,4,13,50,51,133,33*4B
$GPGLL,2458.04130,N,12111.39188,E,095203.00,A,A*60
$GPRMC,095204.00,A,2458.04115,N,12111.39086,E,2.583,259.95,121119,,,A*6D
$GPVTG,259.95,T,,M,2.583,N,4.784,K,A*3C
$GPGGA,095204.00,2458.04115,N,12111.39086,E,1,09,0.93,142.8,M,16.4,M,,*55
$GPGSA,A,3,25,14,10,26,29,20,22,31,32,,,,1.75,0.93,1.48*0B
$GPGSV,4,1,13,10,40,186,36,12,03,036,22,14,51,340,34,16,11,211,31*72
$GPGSV,4,2,13,20,14,170,25,22,11,315,25,25,45,041,36,26,38,216,42*71
$GPGSV,4,3,13,29,24,108,36,31,49,312,36,32,69,037,41,42,54,141,33*7B
$GPGSV,4,4,13,50,51,133,35*4D
$GPGLL,2458.04115,N,12111.39086,E,095204.00,A,A*6F
$GPRMC,095205.00,A,2458.04100,N,12111.38988,E,2.181,256.27,121119,,,A*6E
$GPVTG,256.27,T,,M,2.181,N,4.040,K,A*33
$GPGGA,095205.00,2458.04100,N,12111.38988,E,1,09,0.93,142.2,M,16.4,M,,*5C
$GPGSA,A,3,25,14,10,26,29,20,22,31,32,,,,1.75,0.93,1.48*0B
$GPGSV,4,1,13,10,40,186,38,12,03,036,24,14,51,340,34,16,11,211,24*7E
$GPGSV,4,2,13,20,14,170,26,22,11,315,26,25,45,041,42,26,38,216,39*7E
$GPGSV,4,3,13,29,24,108,35,31,49,312,25,32,69,037,43,42,54,141,37*7C
$GPGSV,4,4,13,50,51,133,37*4F
$GPGLL,2458.04100,N,12111.38988,E,095205.00,A,A*6C
$GPRMC,095206.00,A,2458.04092,N,12111.38906,E,2.402,253.00,121119,,,A*6F
$GPVTG,253.00,T,,M,2.402,N,4.449,K,A*30
$GPGGA,095206.00,2458.04092,N,12111.38906,E,1,09,0.93,140.9,M,16.4,M,,*5A
$GPGSA,A,3,25,14,10,26,29,20,22,31,32,,,,1.75,0.93,1.48*0B
$GPGSV,4,1,13,10,40,186,43,12,03,036,26,14,51,340,32,16,11,211,30*73
$GPGSV,4,2,13,20,14,170,34,22,11,315,26,25,45,041,30,26,38,216,31*70
$GPGSV,4,3,13,29,24,108,32,31,49,312,32,32,69,037,39,42,54,141,30*77
$GPGSV,4,4,13,50,51,133,30*48
$GPGLL,2458.04092,N,12111.38906,E,095206.00,A,A*63
$GPRMC,095207.00,A,2458.04076,N,12111.38822,E,2.211,251.55,121119,,,A*65
$GPVTG,251.55,T,,M,2.211,N,4.094,K,A*32
$GPGGA,095207.00,2458.04076,N,12111.38822,E,1,09,0.93,141.1,M,16.4,M,,*5F
$GPGSA,A,3,25,14,10,26,29,20,22,31,32,,,,1.75,0.93,1.48*0B
$GPGSV,3,1,12,10,40,186,44,12,03,036,25,14,51,340,31,16,11,211,22*71
$GPGSV,3,2,12,20,14,170,35,22,11,315,25,25,45,041,33,26,38,216,40*71
$GPGSV,3,3,12,29,24,108,31,31,49,312,35,32,69,037,30,50,51,133,38*77
$GPGLL,2458.04076,N,12111.38822,E,095207.00,A,A*6F
$GPRMC,095208.00,A,2458.04055,N,12111.38728,E,2.365,250.45,121119,,,A*6C
$GPVTG,250.45,T,,M,2.365,N,4.380,K,A*36
$GPGGA,095208.00,2458.04055,N,12111.38728,E,1,09,0.93,141.2,M,16.4,M,,*57
$GPGSA,A,3,25,14,10,26,29,20,22,31,32,,,,1.75,0.93,1.48*0B
$GPGSV,3,1,12,10,40,186,40,12,03,036,25,14,51,340,25,16,11,211,30*73
$GPGSV,3,2,12,20,14,170,31,22,11,315,26,25,45,041,41,26,38,216,40*73
$GPGSV,3,3,12,29,24,108,31,31,49,312,30,32,69,037,36,50,51,133,36*7A
$GPGLL,2458.04055,N,12111.38728,E,095208.00,A,A*64
$GPRMC,095209.00,A,2458.04034,N,12111.38634,E,2.739,249.55,121119,,,A*62
$GPVTG,249.55,T,,M,2.739,N,5.072,K,A*3D
$GPGGA,095209.00,2458.04034,N,12111.38634,E,1,09,0.93,142.7,M,16.4,M,,*5B
$GPGSA,A,3,25,14,10,26,29,20,22,31,32,,,,1.75,0.93,1.48*0B
$GPGSV,3,1,12,10,40,186,41,12,03,036,24,14,51,340,31,16,11,211,31*77
$GPGSV,3,2,12,20,14,170,26,22,11,315,26,25,45,041,41,26,38,216,39*7B
$GPGSV,3,3,12,29,24,108,30,31,49,312,35,32,69,037,36,50,51,133,34*7C
$GPGLL,2458.04034,N,12111.38634,E,095209.00,A,A*6E
$GPRMC,095210.00,A,2458.04014,N,12111.38529,E,3.046,255.93,121119,,,A*6E
$GPVTG,255.93,T,,M,3.046,N,5.641,K,A*32
$GPGGA,095210.00,2458.04014,N,12111.38529,E,1,09,0.93,144.4,M,16.4,M,,*5B
$GPGSA,A,3,25,14,10,26,29,20,22,31,32,,,,1.75,0.93,1.48*0B
$GPGSV,3,1,12,10,40,186,35,12,03,036,22,14,51,340,31,16,11,211,25*77
$GPGSV,3,2,12,20,14,170,28,22,11,315,26,25,45,041,33,26,38,216,42*7C
$GPGSV,3,3,12,29,24,108,34,31,49,312,32,32,69,037,33,50,51,133,34*7A
$GPGLL,2458.04014,N,12111.38529,E,095210.00,A,A*6B
$GPRMC,095211.00,A,2458.03992,N,12111.38440,E,2.882,251.36,121119,,,A*6B
$GPVTG,251.36,T,,M,2.882,N,5.338,K,A*33
$GPGGA,095211.00,2458.03992,N,12111.38440,E,1,09,0.93,145.0,M,16.4,M,,*51
$GPGSA,A,3,25,14,10,26,29,20,22,31,32,,,,1.75,0.93,1.48*0B
$GPGSV,3,1,12,10,40,186,37,12,03,036,22,14,51,340,31,16,11,211,31*70
$GPGSV,3,2,12,20,14,170,28,22,11,315,26,25,45,041,33,26,38,216,35*7C
$GPGSV,3,3,12,29,24,108,28,31,49,312,31,32,69,037,29,50,51,133,38*73
$GPGLL,2458.03992,N,12111.38440,E,095211.00,A,A*64
$GPRMC,095212.00,A,2458.03978,N,12111.38334,E,2.634,251.65,121119,,,A*6D
$GPVTG,251.65,T,,M,2.634,N,4.878,K,A*38
$GPGGA,095212.00,2458.03978,N,12111.38334,E,1,09,0.93,145.9,M,16.4,M,,*5B
$GPGSA,A,3,25,14,10,26,29,20,22,31,32,,,,1.75,0.93,1.48*0B
$GPGSV,3,1,12,10,40,186,34,12,03,036,23,14,51,340,32,16,11,211,25*74
$GPGSV,3,2,12,20,14,170,28,22,11,315,26,25,45,041,36,26,38,216,32*7E
$GPGSV,3,3,12,29,24,108,35,31,49,312,39,32,69,037,36,50,51,133,29*79
$GPGLL,2458.03978,N,12111.38334,E,095212.00,A,A*67
$GPRMC,095213.00,A,2458.03958,N,12111.38237,E,2.243,247.28,121119,,,A*66
$GPVTG,247.28,T,,M,2.243,N,4.154,K,A*35
$GPGGA,095213.00,2458.03958,N,12111.38237,E,1,09,0.93,145.4,M,16.4,M,,*57
$GPGSA,A,3,25,14,10,26,29,20,22,31,32,,,,1.75,0.93,1.48*0B
$GPGSV,3,1,12,10,40,186,33,12,03,036,22,14,51,340,31,16,11,211,31*74
$GPGSV,3,2,12,20,14,170,28,22,11,315,26,25,45,041,38,26,38,216,36*74
$GPGSV,3,3,12,29,24,108,37,31,49,312,34,32,69,037,40,50,51,133,32*7D
$GPGLL,2458.03958,N,12111.38237,E,095213.00,A,A*66
$GPRMC,095214.00,A,2458.03939,N,12111.38155,E,2.517,246.88,121119,,,A*6C
$GPVTG,246.88,T,,M,2.517,N,4.661,K,A*39
$GPGGA,095214.00,2458.03939,N,12111.38155,E,1,09,0.93,145.0,M,16.4,M,,*54
$GPGSA,A,3,25,14,10,26,29,20,22,31,32,,,,1.75,0.93,1.48*0B
$GPGSV,3,1,12,10,40,186,36,12,03,036,21,14,51,340,35,16,11,211,26*70
$GPRMC,095227.00,A,2458.04125,N,12111.37054,E,1.669,271.39,121119,,,A*66
$GPVTG,271.39,T,,M,1.669,N,3.091,K,A*30
$GPGGA,095227.00,2458.04125,N,12111.37054,E,1,09,0.93,142.3,M,16.4,M,,*5D
$GPGSA,A,3,25,14,10,26,29,20,22,31,32,,,,1.75,0.93,1.48*0B
$GPGSV,3,1,12,10,40,186,36,12,03,036,31,14,51,340,32,16,11,211,34*75
$GPGSV,3,2,12,20,14,170,33,22,11,315,28,25,45,041,32,26,38,216,37*7B
$GPGSV,3,3,12,29,24,108,30,31,49,312,29,32,69,037,36,50,51,133,36*73
$GPGLL,2458.04125,N,12111.37054,E,095227.00,A,A*6C
$GPTXT,01,01,02,u-blox ag - www.u-blox.com*50
$GPTXT,01,01,02,HW  UBX-G60xx  00040007 FF7FFFFFp*53
$GPTXT,01,01,02,ROM CORE 7.03 (45969) Mar 17 2011 16:18:34*59
$GPTXT,01,01,02,ANTSUPERV=AC SD PDoS SR*20
$GPTXT,01,01,02,ANTSTATUS=OK*3B
$GPRMC,095228.00,A,2458.04116,N,12111.36981,E,1.242,267.07,121119,,,A*6E
$GPVTG,267.07,T,,M,1.242,N,2.300,K,A*3D
$GPGGA,095228.00,2458.04116,N,12111.36981,E,1,09,0.93,143.7,M,16.4,M,,*57
$GPGSA,A,3,25,14,10,26,29,20,22,31,32,,,,1.75,0.93,1.48*0B
$GPGSV,3,1,12,10,40,186,37,12,03,036,24,14,51,340,32,16,11,211,34*70
$GPGSV,3,2,12,20,14,170,29,22,11,315,28,25,45,041,36,26,38,216,29*7B
$GPGSV,3,3,12,29,24,108,37,31,49,312,34,32,69,037,43,50,51,133,36*7A
$GPGLL,2458.04116,N,12111.36981,E,095228.00,A,A*63
$GPRMC,095229.00,A,2458.04127,N,12111.36855,E,2.698,273.38,121119,,,A*6C
$GPVTG,273.38,T,,M,2.698,N,4.997,K,A*36
$GPGGA,095229.00,2458.04127,N,12111.36855,E,1,09,0.93,143.1,M,16.4,M,,*5A
$GPGSA,A,3,25,14,10,26,29,20,22,31,32,,,,1.75,0.93,1.48*0B
$GPGSV,3,1,12,10,40,186,37,12,03,036,27,14,51,340,29,16,11,211,33*7E
$GPGSV,3,2,12,20,14,170,29,22,11,315,29,25,45,041,35,26,38,216,39*78
$GPGSV,3,3,12,29,24,108,32,31,49,312,39,32,69,037,42,50,51,133,31*74
$GPGLL,2458.04127,N,12111.36855,E,095229.00,A,A*68
$GPRMC,095230.00,A,2458.04135,N,12111.36734,E,2.292,272.52,121119,,,A*6C
$GPVTG,272.52,T,,M,2.292,N,4.245,K,A*31
$GPGGA,095230.00,2458.04135,N,12111.36734,E,1,09,0.93,143.3,M,16.4,M,,*5B
$GPGSA,A,3,25,14,10,26,29,20,22,31,32,,,,1.75,0.93,1.48*0B
$GPGSV,3,1,12,10,40,186,36,12,03,036,27,14,51,340,29,16,11,211,34*78
$GPGSV,3,2,12,20,14,170,33,22,11,315,28,25,45,041,30,26,38,216,40*79
$GPGSV,3,3,12,29,24,108,31,31,49,312,36,32,69,037,40,50,51,133,35*7E
$GPGLL,2458.04135,N,12111.36734,E,095230.00,A,A*6B
$GPRMC,095231.00,A,2458.04150,N,12111.36599,E,2.394,271.43,121119,,,A*6F
$GPVTG,271.43,T,,M,2.394,N,4.433,K,A*32
$GPGGA,095231.00,2458.04150,N,12111.36599,E,1,09,0.93,143.2,M,16.4,M,,*5D
$GPGSA,A,3,25,14,10,26,29,20,22,31,32,,,,1.75,0.93,1.48*0B
$GPGSV,3,1,12,10,40,186,30,12,03,036,28,14,51,340,33,16,11,211,31*7F
$GPGSV,3,2,12,20,14,170,30,22,11,315,28,25,45,041,37,26,38,216,39*73
$GPGSV,3,3,12,29,24,108,31,31,49,312,39,32,69,037,39,50,51,133,34*7E
$GPGLL,2458.04150,N,12111.36599,E,095231.00,A,A*6C
$GPRMC,095232.00,A,2458.04165,N,12111.36465,E,2.470,264.08,121119,,,A*6E
$GPVTG,264.08,T,,M,2.470,N,4.575,K,A*37
$GPGGA,095232.00,2458.04165,N,12111.36465,E,1,09,0.93,143.3,M,16.4,M,,*5B
$GPGSA,A,3,25,14,10,26,29,20,22,31,32,,,,1.75,0.93,1.48*0B
$GPGSV,3,1,12,10,40,186,39,12,03,036,28,14,51,340,34,16,11,211,27*76
$GPGSV,3,2,12,20,14,170,29,22,11,315,28,25,45,041,31,26,38,216,36*72
$GPGSV,3,3,12,29,24,108,27,31,49,312,42,32,69,037,44,50,51,133,38*73
$GPGLL,2458.04165,N,12111.36465,E,095232.00,A,A*6B
$GPRMC,095233.00,A,2458.04172,N,12111.36331,E,2.712,262.02,121119,,,A*64
$GPVTG,262.02,T,,M,2.712,N,5.023,K,A*3B
$GPGGA,095233.00,2458.04172,N,12111.36331,E,1,09,0.93,143.5,M,16.4,M,,*5C
$GPGSA,A,3,25,14,10,26,29,20,22,31,32,,,,1.75,0.93,1.48*0B
$GPGSV,3,1,12,10,40,186,38,12,03,036,27,14,51,340,29,16,11,211,32*70
$GPGSV,3,2,12,20,14,170,33,22,11,315,27,25,45,041,34,26,38,216,35*70
$GPGSV,3,3,12,29,24,108,27,31,49,312,42,32,69,037,43,50,51,133,28*75
$GPGLL,2458.04172,N,12111.36331,E,095233.00,A,A*6A
$GPRMC,095234.00,A,2458.04187,N,12111.36200,E,2.783,267.37,121119,,,A*61
$GPVTG,267.37,T,,M,2.783,N,5.155,K,A*30
$GPGGA,095234.00,2458.04187,N,12111.36200,E,1,09,0.93,143.0,M,16.4,M,,*57
$GPGSA,A,3,25,14,10,26,29,20,22,31,32,,,,1.75,0.93,1.48*0B
$GPGSV,3,1,12,10,40,186,44,12,03,036,26,14,51,340,33,16,11,211,35*76
$GPGSV,3,2,12,20,14,170,39,22,11,315,26,25,45,041,31,26,38,216,36*7D
$GPGSV,3,3,12,29,24,108,32,31,49,312,41,32,69,037,42,50,51,133,33*79
$GPGLL,2458.04187,N,12111.36200,E,095234.00,A,A*64
$GPRMC,095235.00,A,2458.04187,N,12111.36068,E,2.977,263.71,121119,,,A*6F
$GPVTG,263.71,T,,M,2.977,N,5.513,K,A*35
$GPGGA,095235.00,2458.04187,N,12111.36068,E,1,09,0.93,143.3,M,16.4,M,,*59
$GPGSA,A,3,25,14,10,26,29,20,22,31,32,,,,1.75,0.93,1.48*0B
$GPGSV,3,1,12,10,40,186,42,12,03,036,25,14,51,340,38,16,11,211,40*7A
$GPGSV,3,2,12,20,14,170,36,22,11,315,26,25,45,041,33,26,38,216,37*71
$GPGSV,3,3,12,29,24,108,31,31,49,312,41,32,69,037,43,50,51,133,36*7E
$GPGLL,2458.04187,N,12111.36068,E,095235.00,A,A*69
$GPRMC,095236.00,A,2458.04172,N,12111.35967,E,2.486,258.77,121119,,,A*6E
$GPVTG,258.77,T,,M,2.486,N,4.605,K,A*3D
$GPGGA,095236.00,2458.04172,N,12111.35967,E,1,09,0.93,143.7,M,16.4,M,,*51
$GPGSA,A,3,25,14,10,26,29,20,22,31,32,,,,1.75,0.93,1.48*0B
$GPGSV,3,1,12,10,40,186,40,12,03,036,24,14,51,340,35,16,11,211,39*7A
$GPGSV,3,2,12,20,14,170,41,22,11,315,26,25,45,041,40,26,38,216,37*75
$GPGSV,3,3,12,29,24,108,30,31,49,312,37,32,69,037,44,50,51,133,34*7B
$GPGLL,2458.04172,N,12111.35967,E,095236.00,A,A*65
$GPRMC,095237.00,A,2458.04158,N,12111.35873,E,2.957,255.53,121119,,,A*69
$GPVTG,255.53,T,,M,2.957,N,5.477,K,A*31
$GPGGA,095237.00,2458.04158,N,12111.35873,E,1,09,0.93,143.9,M,16.4,M,,*52
$GPGSA,A,3,25,14,10,26,29,20,22,31,32,,,,1.75,0.93,1.48*0B
$GPGSV,3,1,12,10,40,186,40,12,03,036,26,14,51,340,35,16,11,211,35*74
$GPGSV,3,2,12,20,14,170,27,22,11,315,24,25,45,041,43,26,38,216,41*75
$GPGSV,3,3,12,29,24,108,34,31,49,312,34,32,69,037,43,50,51,133,38*77
$GPGLL,2458.04158,N,12111.35873,E,095237.00,A,A*68
$GPRMC,095238.00,A,2458.04133,N,12111.35784,E,2.702,254.61,121119,,,A*62
$GPVTG,254.61,T,,M,2.702,N,5.004,K,A*3F
$GPGGA,095238.00,2458.04133,N,12111.35784,E,1,09,0.93,144.8,M,16.4,M,,*51
$GPGSA,A,3,25,14,10,26,29,20,22,31,32,,,,1.75,0.93,1.48*0B
$GPGSV,4,1,13,10,40,186,32,12,03,036,26,14,51,340,37,16,11,211,39*79
$GPGSV,4,2,13,20,14,170,40,22,11,315,23,25,45,041,41,26,38,216,39*78
$GPGSV,4,3,13,29,24,108,30,31,49,312,30,32,69,037,45,42,54,141,34*78
$GPGSV,4,4,13,50,51,133,34*4C
$GPGLL,2458.04133,N,12111.35784,E,095238.00,A,A*6D
$GPRMC,095239.00,A,2458.04125,N,12111.35690,E,3.333,252.22,121119,,,A*66
$GPVTG,252.22,T,,M,3.333,N,6.173,K,A*3B
$GPGGA,095239.00,2458.04125,N,12111.35690,E,1,09,0.93,144.4,M,16.4,M,,*5F
$GPGSA,A,3,25,14,10,26,29,20,22,31,32,,,,1.75,0.93,1.48*0B
$GPGSV,4,1,13,10,40,186,28,12,03,036,24,14,51,340,34,16,11,211,*79
$GPGSV,4,2,13,20,14,170,31,22,11,315,23,25,45,041,44,26,38,216,37*75
$GPGSV,4,3,13,29,24,108,29,31,49,312,37,32,69,037,47,42,54,141,34*75
$GPGSV,4,4,13,50,51,133,37*4F
$GPGLL,2458.04125,N,12111.35690,E,095239.00,A,A*6F
$GPRMC,095240.00,A,2458.04125,N,12111.35563,E,3.214,253.04,121119,,,A*66
$GPVTG,253.04,T,,M,3.214,N,5.953,K,A*33
$GPGGA,095240.00,2458.04125,N,12111.35563,E,1,08,1.33,144.0,M,16.4,M,,*50
$GPGSA,A,3,25,14,10,26,29,20,31,32,,,,,3.20,1.33,2.91*05
$GPGSV,4,1,13,10,40,186,35,12,03,036,22,14,51,340,35,16,11,211,31*70
$GPGSV,4,2,13,20,14,170,31,22,11,315,,25,45,041,42,26,38,216,43*71
$GPGSV,4,3,13,29,24,108,29,31,49,312,40,32,69,037,43,42,54,141,38*7D
$GPGSV,4,4,13,50,51,133,40*4F
$GPGLL,2458.04125,N,12111.35563,E,095240.00,A,A*6E
$GPRMC,095241.00,A,2458.04131,N,12111.35431,E,3.145,251.78,121119,,,A*6A
$GPVTG,251.78,T,,M,3.145,N,5.824,K,A*3C
$GPGGA,095241.00,2458.04131,N,12111.35431,E,1,09,1.33,143.1,M,16.4,M,,*55
$GPGSA,A,3,25,14,10,26,29,20,22,31,32,,,,3.20,1.33,2.91*05
$GPGSV,4,1,13,10,40,186,38,12,03,036,20,14,51,340,31,16,11,211,30*7A
$GPGSV,4,2,13,20,14,170,26,22,11,315,26,25,45,041,39,26,38,216,38*73
$GPGSV,4,3,13,29,24,108,29,31,49,312,39,32,69,037,43,42,54,141,36*7D
$GPGSV,4,4,13,50,51,133,37*4F
$GPGLL,2458.04131,N,12111.35431,E,095241.00,A,A*6C
$GPRMC,095242.00,A,2458.04139,N,12111.35279,E,3.708,259.65,121119,,,A*60
$GPVTG,259.65,T,,M,3.708,N,6.867,K,A*33
$GPGGA,095242.00,2458.04139,N,12111.35279,E,1,09,1.33,142.5,M,16.4,M,,*51
$GPGSA,A,3,25,14,10,26,29,20,22,31,32,,,,3.20,1.33,2.91*05
$GPGSV,4,1,13,10,40,186,32,12,03,036,20,14,51,340,32,16,11,211,30*73
$GPGSV,4,2,13,20,14,170,25,22,11,315,25,25,45,041,40,26,38,216,39*7C
$GPGSV,4,3,13,29,24,108,29,31,49,312,42,32,69,037,42,42,54,141,38*7E
$GPGSV,4,4,13,50,51,133,39*41
$GPGLL,2458.04139,N,12111.35279,E,095242.00,A,A*6D
$GPRMC,095243.00,A,2458.04135,N,12111.35161,E,3.140,260.81,121119,,,A*6D
$GPVTG,260.81,T,,M,3.140,N,5.816,K,A*3C
$GPGGA,095243.00,2458.04135,N,12111.35161,E,1,09,0.93,142.5,M,16.4,M,,*5D
$GPGSA,A,3,25,14,10,26,29,20,22,31,32,,,,1.75,0.93,1.48*0B
$GPGSV,4,1,13,10,39,186,33,12,03,036,,14,51,340,27,16,11,211,30*7A
$GPGSV,4,2,13,20,14,170,25,22,11,315,23,25,45,041,40,26,38,216,32*71
$GPGSV,4,3,13,29,24,108,28,31,49,312,39,32,69,037,43,42,54,141,36*7C
$GPGSV,4,4,13,50,51,133,39*41
$GPGLL,2458.04135,N,12111.35161,E,095243.00,A,A*6A
$GPRMC,095244.00,A,2458.04131,N,12111.35058,E,3.375,260.46,121119,,,A*6A
$GPVTG,260.46,T,,M,3.375,N,6.251,K,A*39
